sensor_id,latitude,longitude,PM10,rain_3h,is_rain,wind_deg,wind_speed,humidity,is_newYear,season,is_rushHour,PM10_average,temp,city,country
3280,51.318,6.202,5.021818181818182,0.0,1.0,78.5021,3.03,76.0,0.0,4.0,0.0,1.2,293.01,Nettetal,DE
5241,54.344,10.204,1.3800000000000008,0.0,1.0,84.5021,9.08,98.0,0.0,4.0,0.0,1.2,289.22,Mönkeberg,DE
1134,53.55,10.048,2.062325581395349,0.0,1.0,79.5021,4.48,76.0,0.0,4.0,0.0,1.2,290.06,Borgfelde,DE
3595,50.708,7.084,5.021818181818182,0.0,1.0,120.002,2.23,79.0,0.0,4.0,0.0,1.2,290.41,Ückesdorf,DE
5204,52.293,8.04,2.9481481481481477,0.0,1.0,83.0021,3.73,80.0,0.0,4.0,0.0,1.2,290.18,Osnabruck,DE
4416,49.413,8.712,5.021818181818182,0.0,1.0,87.0021,1.93,65.0,0.0,4.0,0.0,1.2,292.23,Heidelberg,DE
5173,50.933,6.934,5.021818181818182,0.0,1.0,120.002,2.23,79.0,0.0,4.0,0.0,1.2,291.76,Lindenthal,DE
3587,53.593,9.967,2.062325581395349,0.0,1.0,79.5021,4.48,76.0,0.0,4.0,0.0,1.2,290.07,Eppendorf,DE
2482,48.941,9.181,5.021818181818182,0.0,1.0,50.5076,1.66,74.0,0.0,4.0,1.0,1.2,286.77,Freiberg am Neckar,DE
2104,51.523,7.524,5.021818181818182,0.0,1.0,82.5076,2.31,72.0,0.0,4.0,1.0,1.2,289.13,Körne,DE
2029,48.854,8.831,5.021818181818182,0.0,1.0,103.002,1.88,72.0,0.0,4.0,0.0,1.2,292.33,Wimsheim,DE
2936,51.389,6.815,5.021818181818182,0.0,1.0,75.0076,2.21,70.0,0.0,4.0,1.0,1.2,289.65,Großenbaum,DE
1784,48.747,8.955,5.021818181818182,0.0,1.0,103.002,1.88,72.0,0.0,4.0,0.0,1.2,292.35,Magstadt,DE
991,48.127,11.601,5.021818181818182,0.005,1.0,82.0076,2.11,79.0,0.0,4.0,1.0,1.2,285.68,Altstadt,DE
3797,51.001,6.851,5.021818181818182,0.0,1.0,94.5076,2.06,76.0,0.0,4.0,1.0,1.2,289.09,Laubenkolonie,DE
851,51.434,7.008,5.021818181818182,0.0,1.0,75.0076,2.21,71.0,0.0,4.0,1.0,1.2,289.23,Essen,DE
5352,51.454,6.736,5.021818181818182,0.0,1.0,75.0076,2.21,70.0,0.0,4.0,1.0,1.2,289.53,Ruhrort,DE
3034,48.836,9.173,5.021818181818182,0.0,1.0,103.002,1.88,72.0,0.0,4.0,0.0,1.2,291.9,Zuffenhausen,DE
3125,50.769,7.302,5.021818181818182,0.0,1.0,120.002,2.23,79.0,0.0,4.0,0.0,1.2,290.12,"Hennef (Sieg), Stadt",DE
3258,51.307,12.383,4.6160000000000005,0.06,1.0,87.0021,2.13,92.0,0.0,4.0,0.0,1.2,288.49,Lössnig,DE
3099,52.745,13.474,1.3800000000000008,0.3825,1.0,92.0021,4.63,90.0,0.0,4.0,0.0,1.2,288.17,Wandlitz,DE
596,49.007,12.105,5.021818181818182,0.0,1.0,119.502,1.98,75.0,0.0,4.0,0.0,1.2,290.29,Regensburg,DE
577,48.491,9.213,5.021818181818182,0.0,1.0,103.002,1.88,72.0,0.0,4.0,0.0,1.2,291.02,Reutlingen,DE
5058,52.05,11.035,4.6160000000000005,0.04,1.0,82.5021,3.13,95.0,0.0,4.0,0.0,1.2,289.03,Gunsleben,DE
153,48.722,9.209,5.021818181818182,0.0,1.0,103.002,1.88,72.0,0.0,4.0,0.0,1.2,291.9,Plieningen,DE
1609,51.63,7.495,2.9481481481481477,0.0,1.0,91.0021,3.23,72.0,0.0,4.0,0.0,1.2,291.07,Lunen,DE
419,49.041,9.136,5.021818181818182,0.0,1.0,87.0021,1.93,65.0,0.0,4.0,0.0,1.2,292.23,Kirchheim am Neckar,DE
4629,48.679,9.021,5.021818181818182,0.0,1.0,103.002,1.88,72.0,0.0,4.0,0.0,1.2,292.36,Boblingen,DE
792,49.022,12.149,0.8627272727272728,0.0,1.0,67.0076,1.61,86.0,0.0,4.0,1.0,1.2,285.44,Tegernheim,DE
2500,48.126,11.55,5.021818181818182,0.0,1.0,73.0021,2.03,68.0,0.0,4.0,0.0,1.2,290.46,Altstadt,DE
1922,51.449,7.097,5.021818181818182,0.0,1.0,75.0076,2.21,71.0,0.0,4.0,1.0,1.2,289.23,Steele,DE
4077,52.545,13.418,4.6160000000000005,0.345,1.0,100.008,4.36,94.0,0.0,4.0,1.0,1.2,287.2,Berlin Pankow,DE
3904,52.394,13.099,4.6160000000000005,0.1025,1.0,110.508,3.01,96.0,0.0,4.0,1.0,1.2,287.24,Babelsberg,DE
3975,48.811,9.179,5.021818181818182,0.0,1.0,103.002,1.88,72.0,0.0,4.0,0.0,1.2,291.9,Stuttgart Feuerbach,DE
438,48.782,9.251,5.021818181818182,0.0,1.0,103.002,1.88,72.0,0.0,4.0,0.0,1.2,291.9,Hedelfingen,DE
4363,48.304,12.565,5.021818181818182,0.0,1.0,61.0076,2.06,83.0,0.0,4.0,1.0,1.2,285.33,Rohrbach,DE
5268,51.191,6.669,5.021818181818182,0.0,1.0,94.5076,2.06,76.0,0.0,4.0,1.0,1.2,289.01,Neuss,DE
2057,52.494,13.429,4.6160000000000005,0.1025,1.0,110.508,3.01,96.0,0.0,4.0,1.0,1.2,287.24,Hermannplatz,DE
3333,50.392,8.008,0.8627272727272728,0.0,1.0,60.0076,1.31,87.0,0.0,4.0,1.0,1.2,287.25,Guckingen,DE
3582,50.998,7.139,5.021818181818182,0.0,1.0,101.008,1.81,79.0,0.0,4.0,1.0,1.2,288.49,Borsbach,DE
1887,51.575,6.981,2.9481481481481477,0.0,1.0,91.0021,3.23,72.0,0.0,4.0,0.0,1.2,291.51,Gladbeck,DE
2854,49.471,10.939,5.021818181818182,0.0,1.0,107.002,1.98,71.0,0.0,4.0,0.0,1.2,290.02,Burgfarrnbach,DE
4406,53.806,11.598,0.8627272727272728,0.05,1.0,75.5021,7.08,87.0,0.0,4.0,0.0,1.2,288.88,Jesendorf,DE
3262,47.746,9.0,5.021818181818182,0.0,1.0,115.002,1.68,74.0,0.0,4.0,0.0,1.2,291.42,Markelfingen,DE
3261,47.746,9.0,5.021818181818182,0.0,1.0,115.002,1.68,74.0,0.0,4.0,0.0,1.2,291.42,Markelfingen,DE
1473,48.364,8.961,5.021818181818182,0.0,1.0,103.002,1.88,72.0,0.0,4.0,0.0,1.2,291.9,Hechingen,DE
4939,49.326,7.214,5.021818181818182,0.0,1.0,89.0021,2.08,70.0,0.0,4.0,0.0,1.2,290.46,Neunkirchen,DE
2197,51.035,13.704,4.6160000000000005,0.035,1.0,151.002,1.93,93.0,0.0,4.0,0.0,1.2,288.26,Löbtau,DE
3063,52.495,13.427,4.6160000000000005,0.3825,1.0,99.0021,4.08,98.0,0.0,4.0,0.0,1.2,287.69,Hermannplatz,DE
5010,54.365,10.073,1.3800000000000008,0.0,1.0,84.5021,9.08,98.0,0.0,4.0,0.0,1.2,289.42,Altwittenbek,DE
800,49.201,9.242,5.021818181818182,0.0,1.0,87.0021,1.93,65.0,0.0,4.0,0.0,1.2,291.71,Neckarsulm,DE
3683,48.716,9.648,5.021818181818182,0.0,1.0,76.5076,1.71,80.0,0.0,4.0,1.0,1.2,285.89,Rechberghausen,DE
3337,49.285,10.789,5.021818181818182,0.0,1.0,107.002,1.98,71.0,0.0,4.0,0.0,1.2,290.58,Neuendettelsau,DE
1670,51.473,7.08,5.021818181818182,0.0,1.0,75.0076,2.21,71.0,0.0,4.0,1.0,1.2,289.23,Leithe,DE
4283,51.744,7.19,5.021818181818182,0.0,1.0,75.0076,2.21,71.0,0.0,4.0,1.0,1.2,288.76,Haltern,DE
4289,53.591,9.706,2.062325581395349,0.0725,1.0,75.5076,4.21,77.0,0.0,4.0,1.0,1.2,288.01,Wedel,DE
4122,51.062,6.92,5.021818181818182,0.0,1.0,101.008,1.81,79.0,0.0,4.0,1.0,1.2,288.85,Voigtslach,DE
5034,51.238,6.795,5.021818181818182,0.0,1.0,94.5076,2.06,76.0,0.0,4.0,1.0,1.2,288.86,Derendorf,DE
3628,48.999,12.075,0.8627272727272728,0.0,1.0,67.0076,1.61,86.0,0.0,4.0,1.0,1.2,285.8,Pentling,DE
2245,49.401,8.64,5.021818181818182,0.0,1.0,19.0076,2.06,73.0,0.0,4.0,1.0,1.2,287.46,Eppelheim,DE
5693,51.025,13.827,4.6160000000000005,0.035,1.0,151.002,1.93,93.0,0.0,4.0,0.0,1.2,288.26,Niederpoyritz,DE
4138,51.033,6.995,5.021818181818182,0.0,1.0,120.002,2.23,79.0,0.0,4.0,0.0,1.2,291.48,Leverkusen,DE
1969,50.806,8.76,4.6160000000000005,0.005,1.0,87.0021,2.23,89.0,0.0,4.0,0.0,1.2,288.33,Marburg an der Lahn,DE
4462,50.2,8.219,5.021818181818182,0.0,1.0,83.0021,1.88,82.0,0.0,4.0,0.0,1.2,290.1,Ehrenbach,DE
1347,48.797,9.48,5.021818181818182,0.0,1.0,100.502,1.98,71.0,0.0,4.0,0.0,1.2,291.8,Winterbach,DE
1149,48.772,9.169,5.021818181818182,0.0,1.0,103.002,1.88,72.0,0.0,4.0,0.0,1.2,291.9,Stuttgart,DE
2560,53.547,9.967,2.062325581395349,0.0,1.0,79.5021,4.48,76.0,0.0,4.0,0.0,1.2,290.06,St. Pauli,DE
4643,48.709,9.622,5.021818181818182,0.0,1.0,100.502,1.98,71.0,0.0,4.0,0.0,1.2,290.94,Wangen,DE
2286,52.512,13.449,1.3800000000000008,0.3825,1.0,92.0021,4.63,90.0,0.0,4.0,0.0,1.2,288.17,Berlin Treptow,DE
2789,50.648,7.183,5.021818181818182,0.0,1.0,100.502,2.03,77.0,0.0,4.0,0.0,1.2,289.27,Niederbachem,DE
2768,53.326,10.626,2.062325581395349,0.0,1.0,78.0021,4.83,71.0,0.0,4.0,0.0,1.2,289.5,Hittbergen,DE
1662,53.79,9.674,0.8627272727272728,0.0,1.0,77.0021,6.23,86.0,0.0,4.0,0.0,1.2,289.91,Sparrieshoop,DE
4305,49.926,8.608,5.021818181818182,0.0,1.0,63.5021,1.98,82.0,0.0,4.0,0.0,1.2,292.13,Weiterstadt,DE
5337,50.955,6.93,5.021818181818182,0.0,1.0,120.002,2.23,79.0,0.0,4.0,0.0,1.2,291.58,Koeln-Ehrenfeld,DE
4223,51.437,14.139,4.6160000000000005,0.035,1.0,130.508,2.41,92.0,0.0,4.0,1.0,1.2,285.26,Torno,DE
4438,53.404,11.224,4.6160000000000005,1.2925,1.0,103.508,4.26,94.0,0.0,4.0,1.0,1.2,285.5,Kuhstorf,DE
2540,52.065,8.61,2.9481481481481477,0.0575,1.0,68.5076,3.51,82.0,0.0,4.0,1.0,1.2,287.44,Wellbach,DE
3874,50.873,6.691,5.021818181818182,0.0,1.0,94.5076,2.06,76.0,0.0,4.0,1.0,1.2,289.11,Kerpen,DE
5307,48.625,9.264,7.822736842105264,0.0,1.0,57.5076,1.31,78.0,0.0,4.0,1.0,1.2,286.8,Neckartailfingen,DE
38,52.506,13.431,4.6160000000000005,0.345,1.0,100.008,4.36,94.0,0.0,4.0,1.0,1.2,287.2,Land Berlin,DE
1389,49.88,8.649,5.021818181818182,0.0,1.0,24.5076,1.96,85.0,0.0,4.0,1.0,1.2,287.57,Darmstadt,DE
2375,51.502,7.553,5.021818181818182,0.0,1.0,82.5076,2.31,72.0,0.0,4.0,1.0,1.2,289.39,Bruch,DE
1277,51.025,13.826,4.6160000000000005,0.035,1.0,151.002,1.93,93.0,0.0,4.0,0.0,1.2,288.26,Niederpoyritz,DE
1175,48.418,10.073,5.021818181818182,0.0,1.0,92.5021,2.13,77.0,0.0,4.0,0.0,1.2,290.41,Oberelchingen,DE
5222,52.037,8.514,2.9481481481481477,0.0,1.0,80.0021,3.43,79.0,0.0,4.0,0.0,1.2,289.68,Sudbrack,DE
4717,48.669,8.997,5.021818181818182,0.0,1.0,103.002,1.88,72.0,0.0,4.0,0.0,1.2,292.36,Boblingen,DE
3905,48.684,9.013,5.021818181818182,0.0,1.0,103.002,1.88,72.0,0.0,4.0,0.0,1.2,292.36,Boblingen,DE
2852,48.21,11.453,5.021818181818182,0.0,1.0,73.0021,2.03,68.0,0.0,4.0,0.0,1.2,290.46,Allach,DE
2086,52.463,13.32,4.6160000000000005,0.3825,1.0,99.0021,4.08,98.0,0.0,4.0,0.0,1.2,287.69,Friedenau,DE
3793,51.359,12.282,4.6160000000000005,0.04,1.0,59.0021,2.53,94.0,0.0,4.0,0.0,1.2,288.23,Leutzsch,DE
4778,53.702,10.25,2.062325581395349,0.0,1.0,74.5021,6.28,85.0,0.0,4.0,0.0,1.2,289.05,Delingsdorf,DE
2624,53.257,10.386,2.062325581395349,0.0,1.0,79.5021,4.48,76.0,0.0,4.0,0.0,1.2,290.06,Luneburg,DE
3119,51.35,6.603,5.021818181818182,0.0,1.0,84.5021,3.08,74.0,0.0,4.0,0.0,1.2,292.25,Krefeld,DE
3719,52.492,6.859,2.9481481481481477,0.0,1.0,85.0021,3.78,73.0,0.0,4.0,0.0,1.2,291.23,Uelsen,DE
2618,52.346,13.095,4.6160000000000005,0.1025,1.0,110.508,3.01,96.0,0.0,4.0,1.0,1.2,287.24,Bergholz,DE
3529,54.282,10.07,1.3800000000000008,0.1325,1.0,79.5076,5.56,88.0,0.0,4.0,1.0,1.2,286.81,Mielkendorf,DE
1630,48.53,9.053,7.822736842105264,0.0,1.0,57.5076,1.31,78.0,0.0,4.0,1.0,1.2,287.56,Tuebingen,DE
1180,52.047,8.532,2.9481481481481477,0.0575,1.0,68.5076,3.51,82.0,0.0,4.0,1.0,1.2,287.27,Sudbrack,DE
5003,52.025,8.423,2.9481481481481477,0.0575,1.0,68.5076,3.51,82.0,0.0,4.0,1.0,1.2,287.26,Steinhagen,DE
964,50.0,8.433,5.021818181818182,0.0,1.0,63.5021,1.98,82.0,0.0,4.0,0.0,1.2,292.13,Russelsheim,DE
3909,51.474,6.702,5.021818181818182,0.0,1.0,84.5021,3.08,74.0,0.0,4.0,0.0,1.2,291.96,Homberg,DE
1768,48.665,8.947,5.021818181818182,0.0,1.0,103.002,1.88,72.0,0.0,4.0,0.0,1.2,292.35,Ehningen,DE
2723,53.215,10.395,2.062325581395349,0.0,1.0,79.5021,4.48,76.0,0.0,4.0,0.0,1.2,289.87,Luneburg,DE
1607,49.084,11.668,5.021818181818182,0.0,1.0,118.502,1.98,71.0,0.0,4.0,0.0,1.2,290.82,Eckerding,DE
5282,50.946,6.652,5.021818181818182,0.0,1.0,104.002,2.38,76.0,0.0,4.0,0.0,1.2,292.3,Bergheim,DE
3137,48.492,9.198,5.021818181818182,0.0,1.0,103.002,1.88,72.0,0.0,4.0,0.0,1.2,291.02,Reutlingen,DE
3234,49.906,10.898,0.8627272727272728,0.0,1.0,89.5021,1.98,86.0,0.0,4.0,0.0,1.2,290.3,Kramersfeld,DE
749,52.385,10.538,4.6160000000000005,0.04,1.0,82.5021,3.13,95.0,0.0,4.0,0.0,1.2,289.24,Meine,DE
431,48.765,9.172,5.021818181818182,0.0,1.0,103.002,1.88,72.0,0.0,4.0,0.0,1.2,291.9,Stuttgart,DE
5681,48.551,8.73,7.822736842105264,0.0,1.0,57.5076,1.31,78.0,0.0,4.0,1.0,1.2,287.75,Nagold,DE
5164,50.225,10.126,4.6160000000000005,0.045,1.0,54.0076,1.36,91.0,0.0,4.0,1.0,1.2,285.03,Nüdlingen,DE
3231,48.883,9.21,7.822736842105264,0.0,1.0,57.5076,1.31,78.0,0.0,4.0,1.0,1.2,287.56,Ludwigsburg,DE
3867,48.151,11.528,5.021818181818182,0.005,1.0,82.0076,2.11,79.0,0.0,4.0,1.0,1.2,285.68,Nymphenburg,DE
799,49.201,9.242,5.021818181818182,0.0,1.0,87.0021,1.93,65.0,0.0,4.0,0.0,1.2,291.71,Neckarsulm,DE
4264,51.525,7.359,5.021818181818182,0.0,1.0,75.0076,2.21,71.0,0.0,4.0,1.0,1.2,289.24,Frohlinde,DE
1501,48.808,9.219,5.021818181818182,0.0,1.0,103.002,1.88,72.0,0.0,4.0,0.0,1.2,291.9,Berg,DE
4368,49.739,10.153,5.021818181818182,0.0,1.0,84.5021,2.13,85.0,0.0,4.0,0.0,1.2,289.94,Kitzingen,DE
675,48.768,9.16,5.021818181818182,0.0,1.0,103.002,1.88,72.0,0.0,4.0,0.0,1.2,291.9,Heslach,DE
1808,48.503,11.762,5.021818181818182,0.0,1.0,78.0021,2.13,68.0,0.0,4.0,0.0,1.2,290.83,Kronsdorf,DE
1890,51.434,7.043,2.9481481481481477,0.0,1.0,91.0021,3.23,72.0,0.0,4.0,0.0,1.2,291.31,Hagenbusch,DE
1387,48.736,9.287,5.021818181818182,0.0,1.0,103.002,1.88,72.0,0.0,4.0,0.0,1.2,291.9,Mettingen,DE
4740,48.745,9.118,7.822736842105264,0.0,1.0,57.5076,1.31,78.0,0.0,4.0,1.0,1.2,287.56,Heslach,DE
4418,48.122,11.659,5.021818181818182,0.005,1.0,82.0076,2.11,79.0,0.0,4.0,1.0,1.2,285.68,Perlach,DE
5022,47.99,7.865,7.822736842105264,0.0,1.0,349.508,1.41,80.0,0.0,4.0,1.0,1.2,287.06,Wiehre,DE
2974,51.456,7.248,5.021818181818182,0.0,1.0,75.0076,2.21,71.0,0.0,4.0,1.0,1.2,289.23,Altenbochum,DE
2657,48.175,11.791,5.021818181818182,0.005,1.0,66.5076,1.51,81.0,0.0,4.0,1.0,1.2,284.53,Grub,DE
2930,51.454,7.15,5.021818181818182,0.0,1.0,75.0076,2.21,71.0,0.0,4.0,1.0,1.2,289.23,Stalleicken,DE
4115,51.045,7.058,5.021818181818182,0.0,1.0,101.008,1.81,79.0,0.0,4.0,1.0,1.2,288.49,Lützenkirchen,DE
717,50.299,8.265,5.021818181818182,0.0,1.0,83.0021,1.88,82.0,0.0,4.0,0.0,1.2,290.15,Bad Camberg,DE
3747,50.057,8.689,5.021818181818182,0.0,1.0,24.5076,1.96,85.0,0.0,4.0,1.0,1.2,287.57,Neu Isenburg,DE
3382,51.955,7.651,2.9481481481481477,0.0,1.0,83.0021,3.73,80.0,0.0,4.0,0.0,1.2,290.39,Muenster,DE
3603,50.975,6.937,5.021818181818182,0.0,1.0,120.002,2.23,79.0,0.0,4.0,0.0,1.2,291.75,Nippes,DE
198,48.483,9.204,5.021818181818182,0.0,1.0,103.002,1.88,72.0,0.0,4.0,0.0,1.2,291.02,Reutlingen,DE
2612,47.633,9.76,7.822736842105264,0.0,1.0,311.002,1.18,83.0,0.0,4.0,0.0,1.2,289.92,Hergensweiler,DE
325,52.352,14.057,4.6160000000000005,0.9375,1.0,112.002,3.93,98.0,0.0,4.0,0.0,1.2,288.22,Furstenwalde,DE
5794,49.656,11.033,0.8627272727272728,0.0,1.0,89.5021,1.98,86.0,0.0,4.0,0.0,1.2,289.9,Baiersdorf,DE
1016,49.156,9.169,5.021818181818182,0.0,1.0,87.0021,1.93,65.0,0.0,4.0,0.0,1.2,291.7,Leingarten,DE
5384,53.448,10.077,2.062325581395349,0.0,1.0,79.5021,4.48,76.0,0.0,4.0,0.0,1.2,289.86,Oortkaten,DE
1453,47.739,7.998,7.822736842105264,0.0,1.0,344.002,1.43,65.0,0.0,4.0,0.0,1.2,292.59,Todtmoos,DE
1400,48.842,8.925,5.021818181818182,0.0,1.0,103.002,1.88,72.0,0.0,4.0,0.0,1.2,292.34,Weissach,DE
2195,52.017,8.539,2.9481481481481477,0.0,1.0,80.0021,3.43,79.0,0.0,4.0,0.0,1.2,289.67,Kreisfreie Stadt Bielefeld,DE
1544,48.842,9.355,5.021818181818182,0.0,1.0,100.502,1.98,71.0,0.0,4.0,0.0,1.2,291.8,Korb,DE
1491,49.902,10.875,5.021818181818182,0.0,1.0,61.5076,1.66,85.0,0.0,4.0,1.0,1.2,286.33,Bamberg,DE
2067,52.502,13.354,4.6160000000000005,0.345,1.0,100.008,4.36,94.0,0.0,4.0,1.0,1.2,287.2,Tiergarten,DE
4945,53.58,9.963,2.062325581395349,0.0,1.0,79.5021,4.48,76.0,0.0,4.0,0.0,1.2,290.06,Eppendorf,DE
428,48.758,9.291,5.021818181818182,0.0,1.0,103.002,1.88,72.0,0.0,4.0,0.0,1.2,291.9,Rüdern,DE
3202,48.688,8.997,5.021818181818182,0.0,1.0,103.002,1.88,72.0,0.0,4.0,0.0,1.2,292.36,Boblingen,DE
3826,53.633,10.07,4.6160000000000005,0.7525,1.0,86.0076,4.56,93.0,0.0,4.0,1.0,1.2,287.23,Wellingsbuettel,DE
770,48.697,9.116,5.021818181818182,0.0,1.0,103.002,1.88,72.0,0.0,4.0,0.0,1.2,291.9,Europe,DE
4732,53.668,10.007,2.062325581395349,0.0,1.0,79.5021,4.48,76.0,0.0,4.0,0.0,1.2,290.07,Langenhorn,DE
5400,48.718,9.12,5.021818181818182,0.0,1.0,103.002,1.88,72.0,0.0,4.0,0.0,1.2,291.9,Europe,DE
2149,51.324,6.967,2.9481481481481477,0.0,1.0,91.0021,3.23,72.0,0.0,4.0,0.0,1.2,291.58,Heiligenhaus,DE
3969,48.674,9.003,5.021818181818182,0.0,1.0,103.002,1.88,72.0,0.0,4.0,0.0,1.2,292.36,Boblingen,DE
201,48.536,9.274,5.021818181818182,0.0,1.0,103.002,1.88,72.0,0.0,4.0,0.0,1.2,291.02,Metzingen,DE
3799,49.835,8.258,5.021818181818182,0.0,1.0,63.5021,1.98,82.0,0.0,4.0,0.0,1.2,291.92,Friesenheim,DE
3580,53.579,10.024,2.062325581395349,0.0,1.0,79.5021,4.48,76.0,0.0,4.0,0.0,1.2,290.07,Freie und Hansestadt Hamburg,DE
1228,48.818,9.169,5.021818181818182,0.0,1.0,103.002,1.88,72.0,0.0,4.0,0.0,1.2,291.9,Zuffenhausen,DE
2006,49.894,10.923,0.8627272727272728,0.0,1.0,89.5021,1.98,86.0,0.0,4.0,0.0,1.2,290.3,Bamberg,DE
3365,52.033,7.094,2.9481481481481477,0.0,1.0,84.5021,3.93,75.0,0.0,4.0,0.0,1.2,290.83,Legden,DE
2964,51.44,6.963,2.9481481481481477,0.0,1.0,91.0021,3.23,72.0,0.0,4.0,0.0,1.2,291.31,Frohnhausen,DE
2870,48.777,9.133,5.021818181818182,0.0,1.0,103.002,1.88,72.0,0.0,4.0,0.0,1.2,291.9,Botnang,DE
3494,49.871,8.651,5.021818181818182,0.0,1.0,63.5021,1.98,82.0,0.0,4.0,0.0,1.2,292.13,Darmstadt,DE
1063,50.933,6.961,5.021818181818182,0.0,1.0,120.002,2.23,79.0,0.0,4.0,0.0,1.2,291.76,Koeln,DE
2393,48.098,7.97,7.822736842105264,0.0,1.0,349.508,1.41,80.0,0.0,4.0,1.0,1.2,287.07,Kollnau,DE
2554,53.558,10.062,4.6160000000000005,0.7525,1.0,86.0076,4.56,93.0,0.0,4.0,1.0,1.2,287.23,Eilbek,DE
5233,50.996,7.101,5.021818181818182,0.0,1.0,101.008,1.81,79.0,0.0,4.0,1.0,1.2,288.49,Borsbach,DE
4246,52.564,10.056,4.6160000000000005,0.18,1.0,96.5076,3.11,89.0,0.0,4.0,1.0,1.2,287.1,Adelheidsdorf,DE
4008,50.797,7.131,5.021818181818182,0.0,1.0,101.008,1.81,79.0,0.0,4.0,1.0,1.2,288.0,Meindorf,DE
2327,51.588,7.327,5.021818181818182,0.0,1.0,75.0076,2.21,71.0,0.0,4.0,1.0,1.2,289.08,Henrichenburg,DE
2895,49.731,8.615,5.021818181818182,0.0,1.0,63.5021,1.98,82.0,0.0,4.0,0.0,1.2,292.13,Zwingenberg,DE
1505,51.436,7.356,2.9481481481481477,0.0,1.0,91.0021,3.23,72.0,0.0,4.0,0.0,1.2,291.53,Witten,DE
3878,47.999,7.85,7.822736842105264,0.0,1.0,344.002,1.43,65.0,0.0,4.0,0.0,1.2,292.76,Freiburg,DE
1407,51.449,6.614,5.021818181818182,0.0,1.0,84.5021,3.08,74.0,0.0,4.0,0.0,1.2,292.43,Moers,DE
3970,48.674,9.003,5.021818181818182,0.0,1.0,103.002,1.88,72.0,0.0,4.0,0.0,1.2,292.36,Boblingen,DE
1535,50.074,8.228,5.021818181818182,0.0,1.0,63.5021,1.98,82.0,0.0,4.0,0.0,1.2,292.13,Wiesbaden,DE
742,52.027,8.519,2.9481481481481477,0.0,1.0,80.0021,3.43,79.0,0.0,4.0,0.0,1.2,289.68,Sudbrack,DE
539,52.038,8.533,2.9481481481481477,0.0,1.0,80.0021,3.43,79.0,0.0,4.0,0.0,1.2,289.68,Sudbrack,DE
3935,48.143,11.491,5.021818181818182,0.0,1.0,73.0021,2.03,68.0,0.0,4.0,0.0,1.2,290.47,Nymphenburg,DE
5277,51.194,6.614,5.021818181818182,0.0,1.0,104.002,2.38,76.0,0.0,4.0,0.0,1.2,292.16,Büttgen,DE
5668,53.917,10.711,0.8627272727272728,0.0,1.0,70.5021,6.73,86.0,0.0,4.0,0.0,1.2,288.76,Bad Schwartau,DE
746,50.841,13.081,4.6160000000000005,0.8675,1.0,156.002,1.88,98.0,0.0,4.0,0.0,1.2,287.34,Floha,DE
3112,50.107,8.684,5.021818181818182,0.0,1.0,83.0021,1.88,82.0,0.0,4.0,0.0,1.2,291.73,Frankfurt am Main,DE
4595,49.978,8.742,5.021818181818182,0.0,1.0,55.5076,1.86,81.0,0.0,4.0,1.0,1.2,287.65,Dreieich,DE
4375,50.867,12.75,4.6160000000000005,1.87,1.0,181.502,1.88,100.0,0.0,4.0,0.0,1.2,286.84,Limbach-Oberfrohna,DE
5021,51.929,7.684,2.9481481481481477,0.0,1.0,83.0021,3.73,80.0,0.0,4.0,0.0,1.2,290.38,Wolbeck,DE
615,48.769,9.185,5.021818181818182,0.0,1.0,103.002,1.88,72.0,0.0,4.0,0.0,1.2,291.9,Gablenberg,DE
5448,52.386,9.971,4.6160000000000005,0.03,1.0,86.0076,2.91,92.0,0.0,4.0,1.0,1.2,286.64,Lehrte,DE
359,48.871,9.226,7.822736842105264,0.0,1.0,57.5076,1.31,78.0,0.0,4.0,1.0,1.2,287.56,Viesenhäuserhof,DE
4007,50.797,7.131,5.021818181818182,0.0,1.0,101.008,1.81,79.0,0.0,4.0,1.0,1.2,288.0,Meindorf,DE
805,48.503,9.231,7.822736842105264,0.0,1.0,57.5076,1.31,78.0,0.0,4.0,1.0,1.2,286.82,Reutlingen,DE
4714,48.191,11.614,5.021818181818182,0.005,1.0,82.0076,2.11,79.0,0.0,4.0,1.0,1.2,285.68,Milbertshofen,DE
2411,48.012,7.724,7.822736842105264,0.0,1.0,349.508,1.41,80.0,0.0,4.0,1.0,1.2,287.05,Merdingen,DE
2363,51.499,7.56,5.021818181818182,0.0,1.0,82.5076,2.31,72.0,0.0,4.0,1.0,1.2,289.39,Bruch,DE
1676,48.105,11.616,5.021818181818182,0.005,1.0,82.0076,2.11,79.0,0.0,4.0,1.0,1.2,285.68,Perlach,DE
5009,51.058,6.921,5.021818181818182,0.0,1.0,120.002,2.23,79.0,0.0,4.0,0.0,1.2,291.75,Voigtslach,DE
677,48.814,9.132,5.021818181818182,0.0,1.0,103.002,1.88,72.0,0.0,4.0,0.0,1.2,291.9,Weilimdorf,DE
417,48.531,9.2,5.021818181818182,0.0,1.0,103.002,1.88,72.0,0.0,4.0,0.0,1.2,291.01,Sickenhausen,DE
2012,51.435,6.973,2.9481481481481477,0.0,1.0,91.0021,3.23,72.0,0.0,4.0,0.0,1.2,291.47,Frohnhausen,DE
2289,47.985,7.898,7.822736842105264,0.0,1.0,344.002,1.43,65.0,0.0,4.0,0.0,1.2,292.75,Neuhäusel,DE
3534,52.392,9.739,4.6160000000000005,0.1575,1.0,75.0021,2.68,93.0,0.0,4.0,0.0,1.2,289.09,List,DE
2287,52.46,13.437,4.6160000000000005,0.3825,1.0,99.0021,4.08,98.0,0.0,4.0,0.0,1.2,287.69,Berlin Tempelhof,DE
4938,49.865,8.675,5.021818181818182,0.0,1.0,63.5021,1.98,82.0,0.0,4.0,0.0,1.2,292.13,Darmstadt,DE
2180,51.019,6.76,5.021818181818182,0.0,1.0,104.002,2.38,76.0,0.0,4.0,0.0,1.2,292.17,Stommeln,DE
1673,52.523,13.444,1.3800000000000008,0.3825,1.0,92.0021,4.63,90.0,0.0,4.0,0.0,1.2,288.17,Berlin,DE
2563,51.42,6.971,2.9481481481481477,0.0,1.0,91.0021,3.23,72.0,0.0,4.0,0.0,1.2,291.47,Bredeney,DE
3449,48.301,11.628,5.021818181818182,0.0,1.0,74.5021,2.13,72.0,0.0,4.0,0.0,1.2,290.74,Eching,DE
1706,49.507,8.205,5.021818181818182,0.0,1.0,63.5021,1.98,82.0,0.0,4.0,0.0,1.2,291.93,Freinsheim,DE
3897,51.955,8.6,2.9481481481481477,0.0,1.0,80.0021,3.43,79.0,0.0,4.0,0.0,1.2,289.46,Sennestadt,DE
4314,48.793,9.182,5.021818181818182,0.0,1.0,103.002,1.88,72.0,0.0,4.0,0.0,1.2,291.9,Stadtkreis Stuttgart,DE
3111,50.107,8.684,0.8627272727272728,0.0,1.0,43.5076,1.26,86.0,0.0,4.0,1.0,1.2,288.52,Frankfurt am Main,DE
4742,48.033,7.762,7.822736842105264,0.0,1.0,349.508,1.41,80.0,0.0,4.0,1.0,1.2,287.06,Umkirch,DE
5573,51.331,7.285,5.021818181818182,0.0,1.0,75.0076,2.21,71.0,0.0,4.0,1.0,1.2,289.23,Hiddinghausen,DE
2943,51.447,7.186,5.021818181818182,0.0,1.0,75.0076,2.21,71.0,0.0,4.0,1.0,1.2,289.23,Stalleicken,DE
579,48.391,9.95,5.021818181818182,0.0,1.0,78.0076,2.41,80.0,0.0,4.0,1.0,1.2,285.62,Unterer Riedhof,DE
1554,48.745,9.171,5.021818181818182,0.0,1.0,103.002,1.88,72.0,0.0,4.0,0.0,1.2,291.9,Degerloch,DE
3241,50.103,8.663,0.8627272727272728,0.0,1.0,43.5076,1.26,86.0,0.0,4.0,1.0,1.2,288.52,Frankfurt am Main,DE
2976,51.5,7.44,5.021818181818182,0.0,1.0,75.0076,2.21,71.0,0.0,4.0,1.0,1.2,289.27,Dortmund,DE
3764,52.493,13.411,4.6160000000000005,0.3825,1.0,99.0021,4.08,98.0,0.0,4.0,0.0,1.2,287.69,Hermannplatz,DE
965,50.0,8.433,5.021818181818182,0.0,1.0,63.5021,1.98,82.0,0.0,4.0,0.0,1.2,292.13,Russelsheim,DE
3746,49.889,10.883,0.8627272727272728,0.0,1.0,89.5021,1.98,86.0,0.0,4.0,0.0,1.2,290.31,Bamberg,DE
3769,48.891,9.19,5.021818181818182,0.0,1.0,103.002,1.88,72.0,0.0,4.0,0.0,1.2,291.9,Ludwigsburg,DE
2625,53.257,10.386,2.062325581395349,0.0,1.0,79.5021,4.48,76.0,0.0,4.0,0.0,1.2,289.87,Luneburg,DE
177,48.793,9.032,5.021818181818182,0.0,1.0,103.002,1.88,72.0,0.0,4.0,0.0,1.2,292.36,Leonberg,DE
3016,52.407,13.06,4.6160000000000005,0.3825,1.0,99.0021,4.08,98.0,0.0,4.0,0.0,1.2,287.69,Potsdam,DE
5196,51.005,12.435,4.6160000000000005,1.87,1.0,181.502,1.88,100.0,0.0,4.0,0.0,1.2,287.73,Landkreis Altenburg,DE
5680,48.551,8.73,5.021818181818182,0.0,1.0,103.002,1.88,72.0,0.0,4.0,0.0,1.2,292.17,Nagold,DE
4627,50.178,8.886,0.8627272727272728,0.0,1.0,93.0021,1.88,86.0,0.0,4.0,0.0,1.2,291.92,Bruchkobel,DE
3228,48.02,11.477,5.021818181818182,0.005,1.0,82.0076,2.11,79.0,0.0,4.0,1.0,1.2,285.68,Baierbrunn,DE
763,48.832,9.19,7.822736842105264,0.0,1.0,57.5076,1.31,78.0,0.0,4.0,1.0,1.2,287.56,Zuffenhausen,DE
1886,51.568,6.998,2.9481481481481477,0.0,1.0,91.0021,3.23,72.0,0.0,4.0,0.0,1.2,291.31,Gladbeck,DE
2777,50.901,7.035,5.021818181818182,0.0,1.0,101.008,1.81,79.0,0.0,4.0,1.0,1.2,288.67,Westhoven,DE
2528,52.5,13.334,4.6160000000000005,0.345,1.0,100.008,4.36,94.0,0.0,4.0,1.0,1.2,287.2,Charlottenburg,DE
4987,51.525,7.47,5.021818181818182,0.0,1.0,75.0076,2.21,71.0,0.0,4.0,1.0,1.2,289.29,Dortmund,DE
5269,49.893,10.889,5.021818181818182,0.0,1.0,61.5076,1.66,85.0,0.0,4.0,1.0,1.2,286.33,Bamberg,DE
3149,47.737,8.975,5.021818181818182,0.0,1.0,115.002,1.68,74.0,0.0,4.0,0.0,1.2,291.41,Radolfzell am Bodensee,DE
1442,51.069,13.739,4.6160000000000005,0.0025000000000013,1.0,123.008,2.26,96.0,0.0,4.0,1.0,1.2,284.93,Dresden,DE
938,53.584,9.969,2.062325581395349,0.0,1.0,79.5021,4.48,76.0,0.0,4.0,0.0,1.2,290.06,Eppendorf,DE
932,54.299,10.183,1.3800000000000008,0.0,1.0,84.5021,9.08,98.0,0.0,4.0,0.0,1.2,289.22,Sophienhöhe,DE
4293,51.172,6.808,5.021818181818182,0.0,1.0,104.002,2.38,76.0,0.0,4.0,0.0,1.2,291.81,Itter,DE
2996,48.744,9.111,5.021818181818182,0.0,1.0,103.002,1.88,72.0,0.0,4.0,0.0,1.2,291.9,Büsnau,DE
3921,49.355,6.817,5.021818181818182,0.0,1.0,88.0021,2.23,74.0,0.0,4.0,0.0,1.2,291.56,Saarwellingen,DE
1346,48.797,9.48,5.021818181818182,0.0,1.0,100.502,1.98,71.0,0.0,4.0,0.0,1.2,291.8,Winterbach,DE
3517,49.899,10.898,0.8627272727272728,0.0,1.0,89.5021,1.98,86.0,0.0,4.0,0.0,1.2,290.31,Kramersfeld,DE
1435,48.778,9.206,5.021818181818182,0.0,1.0,103.002,1.88,72.0,0.0,4.0,0.0,1.2,291.9,Stuttgart-Ost,DE
5392,53.624,9.786,2.062325581395349,0.0025,1.0,77.0021,4.43,77.0,0.0,4.0,0.0,1.2,290.35,Schenefeld,DE
1332,52.394,10.645,4.6160000000000005,0.04,1.0,82.5021,3.13,95.0,0.0,4.0,0.0,1.2,289.25,Jelpke,DE
4142,51.052,6.957,5.021818181818182,0.0,1.0,120.002,2.23,79.0,0.0,4.0,0.0,1.2,291.48,Voigtslach,DE
5813,52.303,8.135,2.9481481481481477,0.0575,1.0,68.5076,3.51,82.0,0.0,4.0,1.0,1.2,287.24,Belm,DE
3140,53.129,8.228,4.6160000000000005,0.225,1.0,72.5021,3.28,88.0,0.0,4.0,0.0,1.2,289.64,Oldenburg,DE
2986,48.151,11.556,5.021818181818182,0.0,1.0,73.0021,2.03,68.0,0.0,4.0,0.0,1.2,290.46,Maxvorstadt,DE
3085,48.966,9.127,5.021818181818182,0.0,1.0,50.5076,1.66,74.0,0.0,4.0,1.0,1.2,286.77,Bietigheim-Bissingen,DE
3916,50.518,7.317,5.021818181818182,0.0,1.0,100.502,2.03,77.0,0.0,4.0,0.0,1.2,289.07,Bad Honningen,DE
1333,52.394,10.645,4.6160000000000005,0.11,1.0,86.0076,2.96,94.0,0.0,4.0,1.0,1.2,286.23,Jelpke,DE
5489,51.866,9.688,4.6160000000000005,0.035,1.0,48.5076,1.26,91.0,0.0,4.0,1.0,1.2,286.48,Wangelnstedt,DE
5413,50.057,8.678,5.021818181818182,0.0,1.0,24.5076,1.96,85.0,0.0,4.0,1.0,1.2,287.57,Neu Isenburg,DE
2326,51.588,7.327,5.021818181818182,0.0,1.0,75.0076,2.21,71.0,0.0,4.0,1.0,1.2,289.08,Henrichenburg,DE
534,48.006,7.828,7.822736842105264,0.0,1.0,349.508,1.41,80.0,0.0,4.0,1.0,1.2,287.06,Freiburg,DE
3245,48.0,10.583,5.021818181818182,0.0,1.0,64.5076,2.56,70.0,0.0,4.0,1.0,1.2,285.71,Bad Worishofen,DE
4791,51.53,7.685,5.021818181818182,0.0,1.0,93.5021,2.98,77.0,0.0,4.0,0.0,1.2,290.42,Unna,DE
5221,52.037,8.514,2.9481481481481477,0.0,1.0,80.0021,3.43,79.0,0.0,4.0,0.0,1.2,289.68,Sudbrack,DE
5272,50.732,7.084,5.021818181818182,0.0,1.0,120.002,2.23,79.0,0.0,4.0,0.0,1.2,291.09,Endenich,DE
2027,47.641,8.079,7.822736842105264,0.445,1.0,25.5021,0.63,70.0,0.0,4.0,0.0,1.2,292.22,Görwihl,DE
4304,48.688,9.012,5.021818181818182,0.0,1.0,103.002,1.88,72.0,0.0,4.0,0.0,1.2,292.36,Boblingen,DE
4050,50.894,6.888,5.021818181818182,0.0,1.0,104.002,2.38,76.0,0.0,4.0,0.0,1.2,292.17,Hurth,DE
1774,51.469,7.19,2.9481481481481477,0.0,1.0,91.0021,3.23,72.0,0.0,4.0,0.0,1.2,291.52,Bochum,DE
944,48.677,9.033,5.021818181818182,0.0,1.0,103.002,1.88,72.0,0.0,4.0,0.0,1.2,291.9,Boblingen,DE
1543,48.842,9.355,5.021818181818182,0.0,1.0,100.502,1.98,71.0,0.0,4.0,0.0,1.2,291.8,Korb,DE
197,48.483,9.204,5.021818181818182,0.0,1.0,103.002,1.88,72.0,0.0,4.0,0.0,1.2,291.02,Reutlingen,DE
5655,51.253,6.467,5.021818181818182,0.0,1.0,104.002,2.38,76.0,0.0,4.0,0.0,1.2,292.06,Kapelle,DE
543,53.558,9.97,2.062325581395349,0.0,1.0,79.5021,4.48,76.0,0.0,4.0,0.0,1.2,289.81,St. Pauli,DE
2690,48.812,10.131,5.021818181818182,0.0,1.0,78.0076,2.41,80.0,0.0,4.0,1.0,1.2,285.33,Oberkochen,DE
2696,53.227,10.516,1.3800000000000008,1.3875,1.0,101.508,4.66,96.0,0.0,4.0,1.0,1.2,285.78,Barendorf,DE
1507,48.586,10.031,5.021818181818182,0.0,1.0,78.0076,2.41,80.0,0.0,4.0,1.0,1.2,285.51,Königsbrunn,DE
5008,51.058,6.921,5.021818181818182,0.0,1.0,101.008,1.81,79.0,0.0,4.0,1.0,1.2,288.85,Voigtslach,DE
4325,49.826,10.88,5.021818181818182,0.0,1.0,61.5076,1.66,85.0,0.0,4.0,1.0,1.2,286.33,Rattelshof,DE
5704,48.239,11.159,5.021818181818182,0.005,1.0,82.0076,2.11,79.0,0.0,4.0,1.0,1.2,285.68,Oberschweinbach,DE
2692,48.394,9.038,7.822736842105264,0.0,1.0,57.5076,1.31,78.0,0.0,4.0,1.0,1.2,286.82,Mossingen,DE
1428,51.442,7.016,2.9481481481481477,0.0,1.0,91.0021,3.23,72.0,0.0,4.0,0.0,1.2,291.47,Essen,DE
3684,48.716,9.648,5.021818181818182,0.0,1.0,100.502,1.98,71.0,0.0,4.0,0.0,1.2,290.95,Rechberghausen,DE
3156,50.891,7.082,5.021818181818182,0.0,1.0,120.002,2.23,79.0,0.0,4.0,0.0,1.2,291.54,Urbach,DE
5166,51.174,6.831,5.021818181818182,0.0,1.0,104.002,2.38,76.0,0.0,4.0,0.0,1.2,291.81,Holthausen,DE
4032,48.688,9.001,5.021818181818182,0.0,1.0,103.002,1.88,72.0,0.0,4.0,0.0,1.2,292.36,Boblingen,DE
3207,52.393,9.756,4.6160000000000005,0.1575,1.0,75.0021,2.68,93.0,0.0,4.0,0.0,1.2,289.09,List,DE
1381,48.343,10.096,5.021818181818182,0.0,1.0,92.5021,2.13,77.0,0.0,4.0,0.0,1.2,290.08,Aufheim,DE
3493,49.871,8.651,5.021818181818182,0.0,1.0,63.5021,1.98,82.0,0.0,4.0,0.0,1.2,292.13,Darmstadt,DE
4094,52.411,9.012,4.6160000000000005,2.52,1.0,68.0076,2.41,91.0,0.0,4.0,1.0,1.2,286.62,Ilse,DE
4991,53.617,10.076,4.6160000000000005,0.7525,1.0,86.0076,4.56,93.0,0.0,4.0,1.0,1.2,287.23,Bramfeld,DE
5646,48.626,9.362,5.021818181818182,0.0,1.0,76.5076,1.71,80.0,0.0,4.0,1.0,1.2,285.87,Nurtingen,DE
2838,48.51,9.061,5.021818181818182,0.0,1.0,103.002,1.88,72.0,0.0,4.0,0.0,1.2,291.9,Tuebingen,DE
2141,51.871,10.913,4.6160000000000005,0.2125,1.0,63.0076,1.16,96.0,0.0,4.0,1.0,1.2,286.51,Derenburg,DE
5598,51.081,13.728,4.6160000000000005,0.0025000000000013,1.0,123.008,2.26,96.0,0.0,4.0,1.0,1.2,284.93,Dresden,DE
3708,53.996,10.783,0.8627272727272728,0.0,1.0,70.5021,6.73,86.0,0.0,4.0,0.0,1.2,288.75,Timmendorfer Strand,DE
1014,48.132,11.598,5.021818181818182,0.005,1.0,82.0076,2.11,79.0,0.0,4.0,1.0,1.2,285.68,Altstadt,DE
3273,50.021,8.424,5.021818181818182,0.0,1.0,24.5076,1.96,85.0,0.0,4.0,1.0,1.2,287.57,Florsheim,DE
4609,49.131,9.207,5.021818181818182,0.0,1.0,87.0021,1.93,65.0,0.0,4.0,0.0,1.2,291.7,Heilbronn,DE
5351,51.454,6.736,5.021818181818182,0.0,1.0,75.0076,2.21,70.0,0.0,4.0,1.0,1.2,289.53,Ruhrort,DE
1276,51.025,13.826,4.6160000000000005,0.0025000000000013,1.0,123.008,2.26,96.0,0.0,4.0,1.0,1.2,284.93,Niederpoyritz,DE
832,53.242,8.453,4.6160000000000005,0.2775,1.0,72.0076,4.26,92.0,0.0,4.0,1.0,1.2,287.79,Elsfleth,DE
1105,53.494,10.02,4.6160000000000005,0.7525,1.0,86.0076,4.56,93.0,0.0,4.0,1.0,1.2,287.12,Neuland,DE
2672,51.558,6.996,2.9481481481481477,0.0,1.0,91.0021,3.23,72.0,0.0,4.0,0.0,1.2,291.51,Gladbeck,DE
2720,49.485,11.112,5.021818181818182,0.0,1.0,118.502,1.98,71.0,0.0,4.0,0.0,1.2,289.7,Lohermoos,DE
3161,51.568,7.189,2.9481481481481477,0.0,1.0,91.0021,3.23,72.0,0.0,4.0,0.0,1.2,291.6,Herne,DE
3696,48.809,8.872,5.021818181818182,0.0,1.0,103.002,1.88,72.0,0.0,4.0,0.0,1.2,292.34,Heimsheim,DE
3955,48.685,9.012,5.021818181818182,0.0,1.0,103.002,1.88,72.0,0.0,4.0,0.0,1.2,292.36,Boblingen,DE
3384,51.905,7.621,2.9481481481481477,0.0,1.0,83.0021,3.73,80.0,0.0,4.0,0.0,1.2,290.39,Hiltrup,DE
3005,51.487,6.609,5.021818181818182,0.0,1.0,84.5021,3.08,74.0,0.0,4.0,0.0,1.2,291.92,Lintfort,DE
142,48.753,9.244,5.021818181818182,0.0,1.0,103.002,1.88,72.0,0.0,4.0,0.0,1.2,291.9,Lederberg,DE
5210,48.047,11.706,5.021818181818182,0.0,1.0,77.0021,1.78,64.0,0.0,4.0,0.0,1.2,289.58,Hohenbrunn,DE
5465,50.728,7.107,5.021818181818182,0.0,1.0,120.002,2.23,79.0,0.0,4.0,0.0,1.2,290.12,Bonn,DE
4038,51.576,6.986,2.9481481481481477,0.0,1.0,91.0021,3.23,72.0,0.0,4.0,0.0,1.2,291.31,Gladbeck,DE
952,48.526,9.06,5.021818181818182,0.0,1.0,103.002,1.88,72.0,0.0,4.0,0.0,1.2,291.9,Tuebingen,DE
4100,50.812,7.17,5.021818181818182,0.0,1.0,101.008,1.81,79.0,0.0,4.0,1.0,1.2,288.11,Troisdorf,DE
3926,53.599,10.041,4.6160000000000005,0.7525,1.0,86.0076,4.56,93.0,0.0,4.0,1.0,1.2,287.43,Barmbek-Nord,DE
3948,48.693,9.562,5.021818181818182,0.0,1.0,76.5076,1.71,80.0,0.0,4.0,1.0,1.2,285.95,Albershausen,DE
2893,51.839,12.185,4.6160000000000005,0.0625,1.0,85.0076,1.76,92.0,0.0,4.0,1.0,1.2,286.86,Großkühnau,DE
672,48.766,9.169,5.021818181818182,0.0,1.0,103.002,1.88,72.0,0.0,4.0,0.0,1.2,291.9,Stuttgart,DE
3568,48.487,9.231,5.021818181818182,0.0,1.0,103.002,1.88,72.0,0.0,4.0,0.0,1.2,291.02,Reutlingen,DE
4843,53.868,10.683,1.3800000000000008,0.3475,1.0,91.0076,5.91,94.0,0.0,4.0,1.0,1.2,287.12,Luebeck,DE
1458,47.877,7.655,7.822736842105264,0.0,1.0,344.002,1.43,65.0,0.0,4.0,0.0,1.2,291.98,Heitersheim,DE
1949,48.761,9.152,5.021818181818182,0.0,1.0,103.002,1.88,72.0,0.0,4.0,0.0,1.2,291.9,Heslach,DE
5035,51.238,6.795,5.021818181818182,0.0,1.0,104.002,2.38,76.0,0.0,4.0,0.0,1.2,291.81,Derendorf,DE
4434,50.042,8.246,5.021818181818182,0.0,1.0,63.5021,1.98,82.0,0.0,4.0,0.0,1.2,292.13,Amöneburg,DE
3645,48.06,11.662,5.021818181818182,0.0,1.0,73.0021,2.03,68.0,0.0,4.0,0.0,1.2,290.13,Ottobrunn,DE
3795,50.661,7.835,5.021818181818182,0.0,1.0,93.0021,1.88,83.0,0.0,4.0,0.0,1.2,288.93,Hachenburg,DE
3563,52.389,13.095,4.6160000000000005,0.3825,1.0,99.0021,4.08,98.0,0.0,4.0,0.0,1.2,287.69,Babelsberg,DE
941,53.596,10.001,2.062325581395349,0.0,1.0,79.5021,4.48,76.0,0.0,4.0,0.0,1.2,289.8,Winterhude,DE
5315,48.189,11.638,5.021818181818182,0.005,1.0,82.0076,2.11,79.0,0.0,4.0,1.0,1.2,285.78,Unterfohring,DE
666,48.738,9.126,7.822736842105264,0.0,1.0,57.5076,1.31,78.0,0.0,4.0,1.0,1.2,287.56,Heslach,DE
667,48.691,9.742,5.021818181818182,0.0,1.0,76.5076,1.71,80.0,0.0,4.0,1.0,1.2,285.9,Salach,DE
3750,48.309,8.926,7.822736842105264,0.0,1.0,57.5076,1.31,78.0,0.0,4.0,1.0,1.2,287.56,Bisingen,DE
5154,53.583,10.085,2.062325581395349,0.0,1.0,79.5021,4.48,76.0,0.0,4.0,0.0,1.2,290.07,Marienthal,DE
2999,51.965,7.628,2.9481481481481477,0.0,1.0,83.0021,3.73,80.0,0.0,4.0,0.0,1.2,290.39,Muenster,DE
5463,52.486,13.386,4.6160000000000005,0.3825,1.0,99.0021,4.08,98.0,0.0,4.0,0.0,1.2,287.69,Kreuzberg,DE
4092,49.633,11.26,5.021818181818182,0.0,1.0,115.502,1.88,79.0,0.0,4.0,0.0,1.2,289.4,Weißenohe,DE
3283,48.6,9.641,5.021818181818182,0.0,1.0,100.502,1.98,71.0,0.0,4.0,0.0,1.2,290.97,Gruibingen,DE
5226,51.666,7.146,2.9481481481481477,0.0,1.0,91.0021,3.23,72.0,0.0,4.0,0.0,1.2,290.91,Sinsen,DE
1084,47.819,9.653,5.021818181818182,0.0,1.0,85.0021,1.88,76.0,0.0,4.0,0.0,1.2,290.78,Baienfurt,DE
3167,51.548,6.983,2.9481481481481477,0.0,1.0,91.0021,3.23,72.0,0.0,4.0,0.0,1.2,291.31,Gladbeck,DE
4458,48.758,9.162,5.021818181818182,0.0,1.0,103.002,1.88,72.0,0.0,4.0,0.0,1.2,291.9,Heslach,DE
3690,50.239,8.595,5.021818181818182,0.0,1.0,83.0021,1.88,82.0,0.0,4.0,0.0,1.2,290.04,Bad Homburg vor der Hohe,DE
5677,49.313,10.562,5.021818181818182,0.0,1.0,89.5076,2.01,78.0,0.0,4.0,1.0,1.2,285.53,Pfaffengreuth,DE
1727,48.808,9.007,5.021818181818182,0.0,1.0,103.002,1.88,72.0,0.0,4.0,0.0,1.2,292.35,Leonberg,DE
4252,48.083,11.533,5.021818181818182,0.0,1.0,73.0021,2.03,68.0,0.0,4.0,0.0,1.2,290.26,Großhesselohe,DE
4160,51.082,7.021,5.021818181818182,0.0,1.0,101.008,1.81,79.0,0.0,4.0,1.0,1.2,288.49,Opladen,DE
1658,48.785,9.198,5.021818181818182,0.0,1.0,103.002,1.88,72.0,0.0,4.0,0.0,1.2,291.9,Stuttgart-Ost,DE
165,48.773,9.174,5.021818181818182,0.0,1.0,103.002,1.88,72.0,0.0,4.0,0.0,1.2,291.9,Stuttgart,DE
3186,53.701,10.251,2.062325581395349,0.0,1.0,74.5021,6.28,85.0,0.0,4.0,0.0,1.2,289.05,Delingsdorf,DE
40,48.722,9.209,7.822736842105264,0.0,1.0,57.5076,1.31,78.0,0.0,4.0,1.0,1.2,287.56,Plieningen,DE
278,52.54,13.386,1.3800000000000008,0.3825,1.0,92.0021,4.63,90.0,0.0,4.0,0.0,1.2,288.17,Berlin,DE
415,48.786,9.195,5.021818181818182,0.0,1.0,103.002,1.88,72.0,0.0,4.0,0.0,1.2,291.9,Berg,DE
4684,50.996,11.026,4.6160000000000005,0.1925,1.0,81.0021,1.93,97.0,0.0,4.0,0.0,1.2,286.91,Erfurt,DE
3703,50.924,6.589,5.021818181818182,0.0,1.0,104.002,2.38,76.0,0.0,4.0,0.0,1.2,292.3,Elsdorf,DE
209,48.809,9.119,5.021818181818182,0.0,1.0,103.002,1.88,72.0,0.0,4.0,0.0,1.2,291.9,Weilimdorf,DE
2318,48.776,8.938,5.021818181818182,0.0,1.0,103.002,1.88,72.0,0.0,4.0,0.0,1.2,292.34,Renningen,DE
2190,51.056,7.262,5.021818181818182,0.0,1.0,120.002,2.23,79.0,0.0,4.0,0.0,1.2,291.09,Meiersberg,DE
5452,53.577,9.822,2.062325581395349,0.0025,1.0,77.0021,4.43,77.0,0.0,4.0,0.0,1.2,290.1,Marienhöhe,DE
3546,51.495,11.939,4.6160000000000005,0.04,1.0,59.0021,2.53,94.0,0.0,4.0,0.0,1.2,288.2,Gimritz,DE
4364,48.304,12.565,5.021818181818182,0.0,1.0,61.0076,2.06,83.0,0.0,4.0,1.0,1.2,285.33,Rohrbach,DE
2965,51.44,6.963,5.021818181818182,0.0,1.0,75.0076,2.21,71.0,0.0,4.0,1.0,1.2,289.22,Frohnhausen,DE
3336,47.979,8.01,7.822736842105264,0.0,1.0,349.508,1.41,80.0,0.0,4.0,1.0,1.2,286.83,Buchenbach,DE
3190,51.947,10.559,4.6160000000000005,0.04,1.0,82.5021,3.13,95.0,0.0,4.0,0.0,1.2,289.03,Vienenburg,DE
2997,48.744,9.111,5.021818181818182,0.0,1.0,103.002,1.88,72.0,0.0,4.0,0.0,1.2,291.9,Büsnau,DE
1070,53.463,9.972,4.6160000000000005,0.7525,1.0,86.0076,4.56,93.0,0.0,4.0,1.0,1.2,287.12,Harburg,DE
4734,50.676,12.611,4.6160000000000005,0.025,1.0,106.008,1.11,96.0,0.0,4.0,1.0,1.2,283.72,Wildenfels,DE
5730,51.951,7.669,2.9481481481481477,0.0075,1.0,68.5076,3.66,78.0,0.0,4.0,1.0,1.2,288.66,Muenster,DE
2116,52.556,13.394,1.3800000000000008,0.3825,1.0,92.0021,4.63,90.0,0.0,4.0,0.0,1.2,288.17,Berlin Pankow,DE
3652,48.693,9.168,5.021818181818182,0.0,1.0,103.002,1.88,72.0,0.0,4.0,0.0,1.2,291.9,Echterdingen,DE
3575,49.957,8.46,5.021818181818182,0.0,1.0,63.5021,1.98,82.0,0.0,4.0,0.0,1.2,292.13,Königstädten,DE
4141,51.059,6.921,5.021818181818182,0.0,1.0,120.002,2.23,79.0,0.0,4.0,0.0,1.2,291.75,Voigtslach,DE
1761,48.853,8.983,5.021818181818182,0.0,1.0,103.002,1.88,72.0,0.0,4.0,0.0,1.2,292.34,Weissach,DE
4409,51.408,7.208,2.9481481481481477,0.0,1.0,91.0021,3.23,72.0,0.0,4.0,0.0,1.2,291.52,Baak,DE
1997,48.778,9.131,5.021818181818182,0.0,1.0,103.002,1.88,72.0,0.0,4.0,0.0,1.2,291.9,Botnang,DE
678,48.814,9.132,5.021818181818182,0.0,1.0,103.002,1.88,72.0,0.0,4.0,0.0,1.2,291.9,Weilimdorf,DE
1726,48.261,8.928,5.021818181818182,0.0,1.0,115.002,1.68,74.0,0.0,4.0,0.0,1.2,291.81,Zollernalbkreis,DE
1970,50.806,8.76,4.6160000000000005,0.005,1.0,87.0021,2.23,89.0,0.0,4.0,0.0,1.2,288.33,Marburg an der Lahn,DE
1866,51.471,7.22,2.9481481481481477,0.0,1.0,91.0021,3.23,72.0,0.0,4.0,0.0,1.2,291.52,Bochum,DE
4652,48.746,9.231,5.021818181818182,0.0,1.0,103.002,1.88,72.0,0.0,4.0,0.0,1.2,291.9,Heumaden,DE
1120,50.402,8.816,0.8627272727272728,0.0,1.0,55.0076,1.31,87.0,0.0,4.0,1.0,1.2,287.26,Wolfersheim,DE
3672,49.341,8.754,5.021818181818182,0.0,1.0,87.0021,1.93,65.0,0.0,4.0,0.0,1.2,292.23,Bammental,DE
3075,51.717,8.748,5.021818181818182,0.0,1.0,93.0021,2.68,81.0,0.0,4.0,0.0,1.2,288.72,Paderborn,DE
4849,50.949,6.831,5.021818181818182,0.0,1.0,94.5076,2.06,76.0,0.0,4.0,1.0,1.2,289.09,Frechen,DE
2512,52.566,13.381,4.6160000000000005,0.345,1.0,100.008,4.36,94.0,0.0,4.0,1.0,1.2,287.2,Berlin Pankow,DE
5774,51.12,6.771,5.021818181818182,0.0,1.0,94.5076,2.06,76.0,0.0,4.0,1.0,1.2,289.01,Kuckhof,DE
5040,52.568,13.365,4.6160000000000005,0.345,1.0,100.008,4.36,94.0,0.0,4.0,1.0,1.2,287.2,Berlin Pankow,DE
3745,49.889,10.883,5.021818181818182,0.0,1.0,61.5076,1.66,85.0,0.0,4.0,1.0,1.2,286.33,Bamberg,DE
3269,49.91,8.648,5.021818181818182,0.0,1.0,63.5021,1.98,82.0,0.0,4.0,0.0,1.2,292.13,Arheilgen,DE
2356,51.499,7.56,5.021818181818182,0.0,1.0,93.5021,2.98,77.0,0.0,4.0,0.0,1.2,291.15,Bruch,DE
4109,51.039,7.011,5.021818181818182,0.0,1.0,120.002,2.23,79.0,0.0,4.0,0.0,1.2,291.48,Leverkusen,DE
4857,51.978,8.473,2.9481481481481477,0.0,1.0,80.0021,3.43,79.0,0.0,4.0,0.0,1.2,289.68,Ummeln,DE
928,47.989,7.842,7.822736842105264,0.0,1.0,344.002,1.43,65.0,0.0,4.0,0.0,1.2,292.75,Freiburg,DE
5803,50.966,7.002,5.021818181818182,0.0,1.0,120.002,2.23,79.0,0.0,4.0,0.0,1.2,291.76,Koeln-Muelheim,DE
3571,52.532,13.541,4.6160000000000005,0.34,1.0,100.502,4.58,94.0,0.0,4.0,0.0,1.2,289.19,Biesdorf,DE
3995,49.793,9.723,5.021818181818182,0.0,1.0,87.0021,2.08,74.0,0.0,4.0,0.0,1.2,290.17,Uettingen,DE
1424,48.918,9.124,5.021818181818182,0.0,1.0,87.0021,1.93,65.0,0.0,4.0,0.0,1.2,292.23,Tamm,DE
5306,42.827,23.352,5.021818181818182,0.09,1.0,62.5021,2.33,66.0,0.0,4.0,0.0,1.2,290.2,Novi Iskŭr,DE
473,48.529,9.06,5.021818181818182,0.0,1.0,103.002,1.88,72.0,0.0,4.0,0.0,1.2,291.9,Tuebingen,DE
3817,48.078,11.516,5.021818181818182,0.0,1.0,73.0021,2.03,68.0,0.0,4.0,0.0,1.2,290.26,Großhesselohe,DE
3083,51.952,7.617,2.9481481481481477,0.0,1.0,83.0021,3.73,80.0,0.0,4.0,0.0,1.2,290.38,Muenster,DE
5247,52.42,13.58,4.6160000000000005,0.11,1.0,107.508,3.76,95.0,0.0,4.0,1.0,1.2,287.7,Wendenschloss,DE
1423,48.852,8.987,7.822736842105264,0.0,1.0,57.5076,1.31,78.0,0.0,4.0,1.0,1.2,287.89,Hemmingen,DE
5140,51.444,7.165,5.021818181818182,0.0,1.0,75.0076,2.21,71.0,0.0,4.0,1.0,1.2,289.23,Baak,DE
842,48.885,9.127,5.021818181818182,0.0,1.0,103.002,1.88,72.0,0.0,4.0,0.0,1.2,291.9,Möglingen,DE
1221,48.043,7.878,7.822736842105264,0.0,1.0,349.508,1.41,80.0,0.0,4.0,1.0,1.2,287.06,Rebberg,DE
674,48.763,9.175,7.822736842105264,0.0,1.0,57.5076,1.31,78.0,0.0,4.0,1.0,1.2,287.56,Degerloch,DE
5466,50.728,7.107,5.021818181818182,0.0,1.0,101.008,1.81,79.0,0.0,4.0,1.0,1.2,287.75,Bonn,DE
2981,51.44,6.963,5.021818181818182,0.0,1.0,75.0076,2.21,71.0,0.0,4.0,1.0,1.2,289.22,Frohnhausen,DE
1921,51.449,7.097,2.9481481481481477,0.0,1.0,91.0021,3.23,72.0,0.0,4.0,0.0,1.2,291.47,Steele,DE
2439,47.992,7.848,7.822736842105264,0.0,1.0,344.002,1.43,65.0,0.0,4.0,0.0,1.2,292.75,Freiburg,DE
3766,51.047,13.796,4.6160000000000005,0.035,1.0,151.002,1.93,93.0,0.0,4.0,0.0,1.2,288.26,Weißer Hirsch,DE
1064,51.509,7.216,2.9481481481481477,0.0,1.0,91.0021,3.23,72.0,0.0,4.0,0.0,1.2,291.6,Eickel,DE
3698,50.918,7.092,5.021818181818182,0.0,1.0,120.002,2.23,79.0,0.0,4.0,0.0,1.2,291.54,Heumar,DE
5801,49.367,8.529,5.021818181818182,0.0,1.0,65.5021,2.13,72.0,0.0,4.0,0.0,1.2,291.95,Ketsch,DE
1897,51.439,7.343,2.9481481481481477,0.0,1.0,91.0021,3.23,72.0,0.0,4.0,0.0,1.2,291.53,Witten,DE
1777,50.082,8.222,5.021818181818182,0.0,1.0,63.5021,1.98,82.0,0.0,4.0,0.0,1.2,290.5,Wiesbaden,DE
968,48.783,9.127,5.021818181818182,0.0,1.0,103.002,1.88,72.0,0.0,4.0,0.0,1.2,291.9,Botnang,DE
1314,52.274,10.512,4.6160000000000005,0.04,1.0,82.5021,3.13,95.0,0.0,4.0,0.0,1.2,289.32,Braunschweig,DE
2359,51.492,7.538,5.021818181818182,0.0,1.0,93.5021,2.98,77.0,0.0,4.0,0.0,1.2,291.12,Bruch,DE
2669,52.455,13.323,4.6160000000000005,0.3825,1.0,99.0021,4.08,98.0,0.0,4.0,0.0,1.2,287.69,Lankwitz,DE
4056,52.184,8.69,2.9481481481481477,0.0575,1.0,68.5076,3.51,82.0,0.0,4.0,1.0,1.2,287.44,Oberbehme,DE
3117,48.801,9.094,5.021818181818182,0.0,1.0,103.002,1.88,72.0,0.0,4.0,0.0,1.2,291.9,Wolfbusch,DE
2194,49.905,10.94,5.021818181818182,0.0,1.0,61.5076,1.66,85.0,0.0,4.0,1.0,1.2,286.51,Kramersfeld,DE
4239,53.553,10.067,4.6160000000000005,0.7525,1.0,86.0076,4.56,93.0,0.0,4.0,1.0,1.2,287.43,Horn,DE
1578,53.607,10.004,2.062325581395349,0.0,1.0,79.5021,4.48,76.0,0.0,4.0,0.0,1.2,289.8,Alsterberg,DE
2260,48.8,9.53,5.021818181818182,0.0,1.0,100.502,1.98,71.0,0.0,4.0,0.0,1.2,291.8,Schorndorf,DE
4078,47.857,11.155,5.021818181818182,0.005,1.0,82.0076,2.11,79.0,0.0,4.0,1.0,1.2,285.68,Wielenbach,DE
3177,50.112,8.627,5.021818181818182,0.0,1.0,83.0021,1.88,82.0,0.0,4.0,0.0,1.2,291.73,Bockenheim,DE
1525,49.983,8.241,5.021818181818182,0.0,1.0,24.5076,1.96,85.0,0.0,4.0,1.0,1.2,286.94,Mainz,DE
1351,50.205,9.998,4.6160000000000005,0.045,1.0,54.0076,1.36,91.0,0.0,4.0,1.0,1.2,285.03,Oberthulba,DE
285,48.771,9.212,7.822736842105264,0.0,1.0,57.5076,1.31,78.0,0.0,4.0,1.0,1.2,287.56,Gablenberg,DE
3850,51.052,13.678,4.6160000000000005,0.0025000000000013,1.0,123.008,2.26,96.0,0.0,4.0,1.0,1.2,284.93,Leutewitz,DE
1532,53.139,8.211,4.6160000000000005,0.225,1.0,72.5021,3.28,88.0,0.0,4.0,0.0,1.2,289.64,Oldenburg,DE
564,51.99,8.598,2.9481481481481477,0.0,1.0,80.0021,3.43,79.0,0.0,4.0,0.0,1.2,289.68,Ubbedissen,DE
5569,51.239,6.794,5.021818181818182,0.0,1.0,104.002,2.38,76.0,0.0,4.0,0.0,1.2,291.81,Derendorf,DE
4808,49.931,8.606,5.021818181818182,0.0,1.0,63.5021,1.98,82.0,0.0,4.0,0.0,1.2,292.13,Weiterstadt,DE
2864,49.381,8.69,5.021818181818182,0.0,1.0,65.5021,2.13,72.0,0.0,4.0,0.0,1.2,292.45,Heidelberg,DE
4524,52.229,9.842,4.6160000000000005,0.1575,1.0,75.0021,2.68,93.0,0.0,4.0,0.0,1.2,289.13,Sarstedt,DE
1425,48.918,9.124,5.021818181818182,0.0,1.0,87.0021,1.93,65.0,0.0,4.0,0.0,1.2,292.23,Tamm,DE
2830,48.006,7.825,7.822736842105264,0.0,1.0,344.002,1.43,65.0,0.0,4.0,0.0,1.2,292.75,Freiburg,DE
5434,52.388,9.989,4.6160000000000005,0.07,1.0,79.5021,2.98,94.0,0.0,4.0,0.0,1.2,289.07,Aligse,DE
4535,51.0,10.0,4.6160000000000005,0.015,1.0,76.5021,1.88,90.0,0.0,4.0,0.0,1.2,288.81,Richelsdorf,DE
344,51.476,7.429,5.021818181818182,0.0,1.0,75.0076,2.21,71.0,0.0,4.0,1.0,1.2,289.27,Flinsbach,DE
2454,48.72,9.105,7.822736842105264,0.0,1.0,57.5076,1.31,78.0,0.0,4.0,1.0,1.2,287.56,Büsnau,DE
4209,48.803,9.212,7.822736842105264,0.0,1.0,57.5076,1.31,78.0,0.0,4.0,1.0,1.2,287.56,Berg,DE
5246,50.727,7.079,5.021818181818182,0.0,1.0,101.008,1.81,79.0,0.0,4.0,1.0,1.2,288.35,Endenich,DE
1989,53.582,11.41,4.6160000000000005,1.2925,1.0,103.508,4.26,94.0,0.0,4.0,1.0,1.2,285.49,Pampow,DE
5651,52.333,9.802,4.6160000000000005,0.155,1.0,81.0076,2.51,94.0,0.0,4.0,1.0,1.2,286.94,Laatzen,DE
545,53.304,9.815,2.062325581395349,0.0725,1.0,75.5076,4.21,77.0,0.0,4.0,1.0,1.2,287.9,Sprötze,DE
2068,52.502,13.354,4.6160000000000005,0.345,1.0,100.008,4.36,94.0,0.0,4.0,1.0,1.2,287.2,Tiergarten,DE
251,50.961,7.0,5.021818181818182,0.0,1.0,101.008,1.81,79.0,0.0,4.0,1.0,1.2,288.85,Koeln-Muelheim,DE
5595,48.003,7.789,7.822736842105264,0.0,1.0,349.508,1.41,80.0,0.0,4.0,1.0,1.2,287.05,Mundenhof,DE
2660,53.519,9.984,2.062325581395349,0.0,1.0,79.5021,4.48,76.0,0.0,4.0,0.0,1.2,289.86,Kleiner Grasbrook,DE
439,48.782,9.251,5.021818181818182,0.0,1.0,103.002,1.88,72.0,0.0,4.0,0.0,1.2,291.9,Hedelfingen,DE
1002,48.399,9.993,5.021818181818182,0.0,1.0,92.5021,2.13,77.0,0.0,4.0,0.0,1.2,290.41,Ulm,DE
2377,51.499,7.56,5.021818181818182,0.0,1.0,93.5021,2.98,77.0,0.0,4.0,0.0,1.2,291.14,Bruch,DE
3418,51.315,12.371,4.6160000000000005,0.06,1.0,87.0021,2.13,92.0,0.0,4.0,0.0,1.2,288.49,Schleußig,DE
5130,50.945,6.954,5.021818181818182,0.0,1.0,120.002,2.23,79.0,0.0,4.0,0.0,1.2,291.76,Altstadt Nord,DE
683,51.371,7.252,2.9481481481481477,0.0,1.0,91.0021,3.23,72.0,0.0,4.0,0.0,1.2,291.51,Sprockhovel,DE
5340,48.848,8.924,5.021818181818182,0.0,1.0,103.002,1.88,72.0,0.0,4.0,0.0,1.2,292.34,Weissach,DE
4695,49.539,8.39,5.021818181818182,0.0,1.0,63.5021,1.98,82.0,0.0,4.0,0.0,1.2,291.93,Edigheim,DE
2656,48.175,11.791,5.021818181818182,0.0,1.0,77.0021,1.78,64.0,0.0,4.0,0.0,1.2,290.07,Grub,DE
2746,48.709,9.267,5.021818181818182,0.0,1.0,103.002,1.88,72.0,0.0,4.0,0.0,1.2,291.9,Scharnhausen,DE
716,48.725,9.095,5.021818181818182,0.0,1.0,103.002,1.88,72.0,0.0,4.0,0.0,1.2,291.9,Büsnau,DE
5440,52.385,9.983,4.6160000000000005,0.07,1.0,79.5021,2.98,94.0,0.0,4.0,0.0,1.2,289.07,"Lehrte, Stadt",DE
5682,49.22,8.653,5.021818181818182,0.0,1.0,19.0076,2.06,73.0,0.0,4.0,1.0,1.2,287.77,Mingolsheim,DE
3912,51.777,10.331,4.6160000000000005,0.1,1.0,65.0021,1.88,89.0,0.0,4.0,0.0,1.2,288.23,Clausthal-Zellerfeld,DE
3744,51.383,7.074,5.021818181818182,0.0,1.0,75.0076,2.21,71.0,0.0,4.0,1.0,1.2,289.33,Byfang,DE
5041,52.568,13.365,4.6160000000000005,0.345,1.0,100.008,4.36,94.0,0.0,4.0,1.0,1.2,287.2,Berlin Pankow,DE
2479,48.776,9.166,7.822736842105264,0.0,1.0,57.5076,1.31,78.0,0.0,4.0,1.0,1.2,287.56,Stuttgart,DE
1268,48.611,13.502,5.021818181818182,0.0,1.0,91.0076,2.46,78.0,0.0,4.0,1.0,1.2,286.07,Witzmannsberg,DE
4765,53.582,9.946,4.6160000000000005,0.7525,1.0,86.0076,4.56,93.0,0.0,4.0,1.0,1.2,287.23,Eppendorf,DE
3960,48.641,8.895,5.021818181818182,0.0,1.0,103.002,1.88,72.0,0.0,4.0,0.0,1.2,292.34,Gärtringen,DE
5508,51.046,6.771,5.021818181818182,0.0,1.0,104.002,2.38,76.0,0.0,4.0,0.0,1.2,292.17,Stommeln,DE
3518,49.899,10.898,0.8627272727272728,0.0,1.0,89.5021,1.98,86.0,0.0,4.0,0.0,1.2,290.31,Kramersfeld,DE
5265,50.743,10.863,4.6160000000000005,0.1925,1.0,81.0021,1.93,97.0,0.0,4.0,0.0,1.2,286.91,Geraberg,DE
5443,52.362,9.97,4.6160000000000005,0.07,1.0,79.5021,2.98,94.0,0.0,4.0,0.0,1.2,289.07,"Lehrte, Stadt",DE
2637,52.486,9.859,4.6160000000000005,0.1575,1.0,75.0021,2.68,93.0,0.0,4.0,0.0,1.2,289.1,Großburgwedel,DE
3208,52.393,9.756,4.6160000000000005,0.1575,1.0,75.0021,2.68,93.0,0.0,4.0,0.0,1.2,289.09,List,DE
5836,48.13,11.578,5.021818181818182,0.0,1.0,73.0021,2.03,68.0,0.0,4.0,0.0,1.2,290.26,Altstadt,DE
5280,53.588,10.01,2.062325581395349,0.0,1.0,79.5021,4.48,76.0,0.0,4.0,0.0,1.2,290.07,Freie und Hansestadt Hamburg,DE
1248,51.456,6.578,5.021818181818182,0.0,1.0,75.0076,2.21,70.0,0.0,4.0,1.0,1.2,289.91,Rayen,DE
2174,51.424,11.764,4.6160000000000005,0.04,1.0,59.0021,2.53,94.0,0.0,4.0,0.0,1.2,289.1,Steuden,DE
5383,53.448,10.077,4.6160000000000005,0.7525,1.0,86.0076,4.56,93.0,0.0,4.0,1.0,1.2,287.12,Oortkaten,DE
525,48.135,11.504,5.021818181818182,0.005,1.0,82.0076,2.11,79.0,0.0,4.0,1.0,1.2,285.68,Nymphenburg,DE
2160,51.611,6.929,5.021818181818182,0.0,1.0,75.0076,2.21,71.0,0.0,4.0,1.0,1.2,289.23,Hardt,DE
2739,53.547,10.013,4.6160000000000005,0.7525,1.0,86.0076,4.56,93.0,0.0,4.0,1.0,1.2,287.23,Hamburg-Mitte,DE
913,51.457,7.008,5.021818181818182,0.0,1.0,75.0076,2.21,71.0,0.0,4.0,1.0,1.2,289.23,Kreisfreie Stadt Essen,DE
3487,48.176,11.712,5.021818181818182,0.005,1.0,66.5076,1.51,81.0,0.0,4.0,1.0,1.2,284.51,Aschheim,DE
4367,49.739,10.153,4.6160000000000005,0.0,1.0,48.0076,2.11,88.0,0.0,4.0,1.0,1.2,285.78,Kitzingen,DE
5522,48.73,8.005,5.021818181818182,0.0,1.0,2.50757,1.66,84.0,0.0,4.0,1.0,1.2,288.08,Lichtenau,DE
4946,53.58,9.963,2.062325581395349,0.0,1.0,79.5021,4.48,76.0,0.0,4.0,0.0,1.2,290.06,Eppendorf,DE
3154,48.63,9.047,7.822736842105264,0.0,1.0,57.5076,1.31,78.0,0.0,4.0,1.0,1.2,287.56,Breitenstein,DE
3303,49.513,11.279,5.021818181818182,0.0,1.0,89.5076,1.76,81.0,0.0,4.0,1.0,1.2,286.57,Lauf an der Pegnitz,DE
1854,51.442,7.014,5.021818181818182,0.0,1.0,75.0076,2.21,71.0,0.0,4.0,1.0,1.2,289.23,Essen,DE
270,48.741,9.322,5.021818181818182,0.0,1.0,100.502,1.98,71.0,0.0,4.0,0.0,1.2,291.8,Esslingen,DE
3704,48.919,9.438,5.021818181818182,0.0,1.0,101.002,1.93,64.0,0.0,4.0,0.0,1.2,291.07,Allmersbach im Tal,DE
3539,53.562,9.963,2.062325581395349,0.0,1.0,79.5021,4.48,76.0,0.0,4.0,0.0,1.2,290.06,St. Pauli,DE
326,52.352,14.057,4.6160000000000005,0.9375,1.0,112.002,3.93,98.0,0.0,4.0,0.0,1.2,288.22,Furstenwalde,DE
3664,51.042,7.065,5.021818181818182,0.0,1.0,120.002,2.23,79.0,0.0,4.0,0.0,1.2,291.25,Lützenkirchen,DE
4967,50.93,6.939,5.021818181818182,0.0,1.0,120.002,2.23,79.0,0.0,4.0,0.0,1.2,291.76,Koeln,DE
5125,53.113,8.896,2.9481481481481477,0.1575,1.0,74.0021,3.88,84.0,0.0,4.0,0.0,1.2,290.28,Warf,DE
1250,51.253,6.687,5.021818181818182,0.0,1.0,104.002,2.38,76.0,0.0,4.0,0.0,1.2,292.03,Niederlörick,DE
1196,51.156,7.071,5.021818181818182,0.0,1.0,120.002,2.23,79.0,0.0,4.0,0.0,1.2,291.25,Stöcken,DE
1121,50.402,8.816,0.8627272727272728,0.0,1.0,93.0021,1.88,86.0,0.0,4.0,0.0,1.2,290.34,Wolfersheim,DE
1574,53.565,9.965,2.062325581395349,0.0,1.0,79.5021,4.48,76.0,0.0,4.0,0.0,1.2,290.06,St. Pauli,DE
2556,53.564,9.927,2.062325581395349,0.0,1.0,79.5021,4.48,76.0,0.0,4.0,0.0,1.2,290.06,Altona,DE
4271,50.994,7.042,5.021818181818182,0.0,1.0,120.002,2.23,79.0,0.0,4.0,0.0,1.2,291.54,Diepeschrath,DE
5548,48.213,11.566,5.021818181818182,0.0,1.0,73.0021,2.03,68.0,0.0,4.0,0.0,1.2,290.26,Neuherberg,DE
3184,48.143,11.469,5.021818181818182,0.005,1.0,82.0076,2.11,79.0,0.0,4.0,1.0,1.2,285.68,Nymphenburg,DE
4704,51.333,6.609,5.021818181818182,0.0,1.0,84.5021,3.08,74.0,0.0,4.0,0.0,1.2,292.45,Krefeld,DE
5620,50.865,12.185,4.6160000000000005,1.8575,1.0,78.5076,1.06,98.0,0.0,4.0,1.0,1.2,285.06,Ronneburg,DE
2388,47.984,7.669,7.822736842105264,0.0,1.0,349.508,1.41,80.0,0.0,4.0,1.0,1.2,287.05,Munzingen,DE
4453,48.152,11.584,5.021818181818182,0.005,1.0,82.0076,2.11,79.0,0.0,4.0,1.0,1.2,285.68,Maxvorstadt,DE
2551,49.96,8.324,5.021818181818182,0.0,1.0,63.5021,1.98,82.0,0.0,4.0,0.0,1.2,292.13,Bodenheim,DE
3742,48.071,11.688,5.021818181818182,0.0,1.0,73.0021,2.03,68.0,0.0,4.0,0.0,1.2,290.13,Riemerling,DE
2383,51.499,7.56,5.021818181818182,0.0,1.0,93.5021,2.98,77.0,0.0,4.0,0.0,1.2,291.15,Bruch,DE
295,48.77,9.2,5.021818181818182,0.0,1.0,103.002,1.88,72.0,0.0,4.0,0.0,1.2,291.9,Gablenberg,DE
327,52.484,13.437,4.6160000000000005,0.1025,1.0,110.508,3.01,96.0,0.0,4.0,1.0,1.2,287.24,Hermannplatz,DE
4564,51.817,8.484,5.021818181818182,0.0025,1.0,91.5076,2.41,76.0,0.0,4.0,1.0,1.2,287.83,Westerwiehe,DE
5700,51.546,9.935,4.6160000000000005,0.03,1.0,51.0076,1.26,91.0,0.0,4.0,1.0,1.2,286.83,Gottingen,DE
4856,48.676,7.986,5.021818181818182,0.0,1.0,2.50757,1.66,84.0,0.0,4.0,1.0,1.2,288.08,Memprechtshofen,DE
4819,49.696,6.631,5.021818181818182,0.0,1.0,92.5021,1.83,75.0,0.0,4.0,0.0,1.2,289.81,Niedermennig,DE
4561,51.614,8.33,5.021818181818182,0.0,1.0,97.0021,2.88,78.0,0.0,4.0,0.0,1.2,290.0,Erwitte,DE
4024,51.002,13.668,4.6160000000000005,0.035,1.0,151.002,1.93,93.0,0.0,4.0,0.0,1.2,288.26,Burgk,DE
5255,47.771,11.354,5.021818181818182,0.0,1.0,73.0021,2.03,68.0,0.0,4.0,0.0,1.2,290.11,Iffeldorf,DE
593,53.151,8.231,4.6160000000000005,0.225,1.0,72.5021,3.28,88.0,0.0,4.0,0.0,1.2,289.64,Oldenburg,DE
2222,48.89,9.191,5.021818181818182,0.0,1.0,103.002,1.88,72.0,0.0,4.0,0.0,1.2,291.9,Ludwigsburg,DE
2100,48.853,9.301,5.021818181818182,0.0,1.0,100.502,1.98,71.0,0.0,4.0,0.0,1.2,291.8,Waldmühle,DE
3052,51.098,6.414,5.021818181818182,0.0,1.0,104.002,2.38,76.0,0.0,4.0,0.0,1.2,292.15,Wickrathberg,DE
2519,52.555,13.34,1.3800000000000008,0.3825,1.0,92.0021,4.63,90.0,0.0,4.0,0.0,1.2,288.17,Berlin Reinickendorf,DE
5459,49.992,8.422,5.021818181818182,0.0,1.0,24.5076,1.96,85.0,0.0,4.0,1.0,1.2,287.57,Russelsheim,DE
827,48.132,11.608,5.021818181818182,0.005,1.0,82.0076,2.11,79.0,0.0,4.0,1.0,1.2,285.68,Bogenhausen,DE
4153,51.068,7.022,5.021818181818182,0.0,1.0,101.008,1.81,79.0,0.0,4.0,1.0,1.2,288.67,Opladen,DE
2793,49.651,8.575,5.021818181818182,0.0,1.0,24.5076,1.96,85.0,0.0,4.0,1.0,1.2,287.57,Lorsch,DE
708,51.641,6.212,5.021818181818182,0.0,1.0,75.0076,2.41,72.0,0.0,4.0,1.0,1.2,290.39,Weeze,DE
217,48.786,9.193,5.021818181818182,0.0,1.0,103.002,1.88,72.0,0.0,4.0,0.0,1.2,291.9,Stadtkreis Stuttgart,DE
5759,48.788,9.197,5.021818181818182,0.0,1.0,103.002,1.88,72.0,0.0,4.0,0.0,1.2,291.9,Berg,DE
3671,49.341,8.754,5.021818181818182,0.0,1.0,87.0021,1.93,65.0,0.0,4.0,0.0,1.2,292.23,Bammental,DE
516,48.509,9.052,5.021818181818182,0.0,1.0,103.002,1.88,72.0,0.0,4.0,0.0,1.2,291.9,Tuebingen,DE
5796,51.458,7.046,2.9481481481481477,0.0,1.0,91.0021,3.23,72.0,0.0,4.0,0.0,1.2,291.47,Kreisfreie Stadt Essen,DE
341,48.721,9.267,5.021818181818182,0.0,1.0,103.002,1.88,72.0,0.0,4.0,0.0,1.2,291.9,Scharnhausen,DE
556,50.923,11.596,4.6160000000000005,0.99,1.0,66.0021,1.88,98.0,0.0,4.0,0.0,1.2,286.51,Jena,DE
364,48.718,9.274,5.021818181818182,0.0,1.0,103.002,1.88,72.0,0.0,4.0,0.0,1.2,291.9,Scharnhausen,DE
5147,48.14,7.615,7.822736842105264,0.0,1.0,344.002,1.43,65.0,0.0,4.0,0.0,1.2,292.76,Sasbach,DE
1005,53.481,10.174,2.062325581395349,0.0,1.0,79.5021,4.48,76.0,0.0,4.0,0.0,1.2,289.66,Bergedorf,DE
5020,51.929,7.684,2.9481481481481477,0.0,1.0,83.0021,3.73,80.0,0.0,4.0,0.0,1.2,290.38,Wolbeck,DE
4780,51.221,6.668,5.021818181818182,0.0,1.0,94.5076,2.06,76.0,0.0,4.0,1.0,1.2,289.01,Neuss,DE
5788,48.159,12.255,5.021818181818182,0.005,1.0,66.5076,1.51,81.0,0.0,4.0,1.0,1.2,284.41,Gars,DE
1027,48.745,9.215,7.822736842105264,0.0,1.0,57.5076,1.31,78.0,0.0,4.0,1.0,1.2,287.56,Sillenbuch,DE
1563,51.958,7.975,2.9481481481481477,0.0075,1.0,68.5076,3.66,78.0,0.0,4.0,1.0,1.2,288.55,Warendorf,DE
1401,48.842,8.925,7.822736842105264,0.0,1.0,57.5076,1.31,78.0,0.0,4.0,1.0,1.2,287.88,Weissach,DE
3205,53.601,11.418,4.6160000000000005,1.2925,1.0,103.508,4.26,94.0,0.0,4.0,1.0,1.2,285.49,Feldstadt,DE
4198,50.947,14.61,4.6160000000000005,0.0050000000000003,1.0,135.008,2.21,91.0,0.0,4.0,1.0,1.2,284.69,Seifhennersdorf,DE
3765,51.047,13.796,4.6160000000000005,0.0025000000000013,1.0,123.008,2.26,96.0,0.0,4.0,1.0,1.2,284.93,Weißer Hirsch,DE
2947,51.544,7.15,5.021818181818182,0.0,1.0,75.0076,2.21,71.0,0.0,4.0,1.0,1.2,289.23,Wanne-Eickel,DE
113,48.809,9.18,5.021818181818182,0.0,1.0,103.002,1.88,72.0,0.0,4.0,0.0,1.2,291.9,Stuttgart Feuerbach,DE
3054,52.018,8.543,2.9481481481481477,0.0,1.0,80.0021,3.43,79.0,0.0,4.0,0.0,1.2,289.68,Kreisfreie Stadt Bielefeld,DE
5122,52.243,7.955,2.9481481481481477,0.0,1.0,83.0021,3.73,80.0,0.0,4.0,0.0,1.2,290.47,Hasbergen,DE
1800,48.274,12.292,5.021818181818182,0.0,1.0,77.0021,1.78,64.0,0.0,4.0,0.0,1.2,290.7,Obertaufkirchen,DE
5498,50.12,8.701,5.021818181818182,0.0,1.0,83.0021,1.88,82.0,0.0,4.0,0.0,1.2,291.73,Frankfurt am Main,DE
1829,48.118,11.599,5.021818181818182,0.0,1.0,73.0021,2.03,68.0,0.0,4.0,0.0,1.2,290.26,Altstadt,DE
206,48.554,9.294,5.021818181818182,0.0,1.0,103.002,1.88,72.0,0.0,4.0,0.0,1.2,291.01,Metzingen,DE
3927,53.599,10.041,4.6160000000000005,0.7525,1.0,86.0076,4.56,93.0,0.0,4.0,1.0,1.2,287.43,Barmbek-Nord,DE
5481,48.591,8.866,7.822736842105264,0.0,1.0,57.5076,1.31,78.0,0.0,4.0,1.0,1.2,287.88,Herrenberg,DE
3466,48.884,9.161,7.822736842105264,0.0,1.0,57.5076,1.31,78.0,0.0,4.0,1.0,1.2,287.56,Moglingen,DE
2162,50.226,8.682,5.021818181818182,0.0,1.0,83.0021,1.88,82.0,0.0,4.0,0.0,1.2,290.07,Friedrichsdorf,DE
275,48.717,9.293,5.021818181818182,0.0,1.0,103.002,1.88,72.0,0.0,4.0,0.0,1.2,291.9,Scharnhausen,DE
1549,48.834,9.427,5.021818181818182,0.0,1.0,100.502,1.98,71.0,0.0,4.0,0.0,1.2,291.8,Geradstetten,DE
1975,48.017,7.799,7.822736842105264,0.0,1.0,344.002,1.43,65.0,0.0,4.0,0.0,1.2,292.75,Mundenhof,DE
2022,49.756,6.994,5.021818181818182,0.0,1.0,90.0021,1.88,71.0,0.0,4.0,0.0,1.2,289.79,Thalfang,DE
3733,52.255,8.875,5.021818181818182,0.03,1.0,76.5021,2.98,82.0,0.0,4.0,0.0,1.2,289.97,Minden,DE
5647,48.626,9.362,5.021818181818182,0.0,1.0,100.502,1.98,71.0,0.0,4.0,0.0,1.2,290.9,Nurtingen,DE
2662,48.073,7.801,7.822736842105264,0.0,1.0,344.002,1.43,65.0,0.0,4.0,0.0,1.2,292.76,Neuershausen,DE
1928,48.59,8.861,5.021818181818182,0.0,1.0,103.002,1.88,72.0,0.0,4.0,0.0,1.2,292.34,Herrenberg,DE
4448,51.87,6.16,5.021818181818182,0.0,1.0,78.5021,3.03,76.0,0.0,4.0,0.0,1.2,292.03,Elten,DE
3702,50.924,6.589,5.021818181818182,0.0,1.0,94.5076,2.06,76.0,0.0,4.0,1.0,1.2,288.94,Elsdorf,DE
2897,49.728,9.228,5.021818181818182,0.0,1.0,55.5076,1.86,81.0,0.0,4.0,1.0,1.2,287.21,Grossheubach,DE
2271,48.511,9.06,7.822736842105264,0.0,1.0,57.5076,1.31,78.0,0.0,4.0,1.0,1.2,287.56,Tuebingen,DE
4103,49.791,9.62,0.8627272727272728,0.0,1.0,60.5076,2.11,86.0,0.0,4.0,1.0,1.2,285.75,Trennfeld,DE
2001,48.003,7.789,7.822736842105264,0.0,1.0,349.508,1.41,80.0,0.0,4.0,1.0,1.2,287.06,Mundenhof,DE
2570,51.13,6.731,5.021818181818182,0.0,1.0,104.002,2.38,76.0,0.0,4.0,0.0,1.2,292.03,Rosellen,DE
1958,51.076,13.748,4.6160000000000005,0.035,1.0,151.002,1.93,93.0,0.0,4.0,0.0,1.2,288.26,"Dresden, Stadt",DE
1403,48.547,9.895,5.021818181818182,0.0,1.0,100.502,1.98,71.0,0.0,4.0,0.0,1.2,290.74,Lonsee,DE
4926,49.981,10.109,5.021818181818182,0.0,1.0,84.5021,2.13,85.0,0.0,4.0,0.0,1.2,290.22,Werneck,DE
2923,51.5,7.138,2.9481481481481477,0.0,1.0,91.0021,3.23,72.0,0.0,4.0,0.0,1.2,291.51,Wattenscheid,DE
4866,51.96,10.482,4.6160000000000005,0.07,1.0,79.5021,2.98,94.0,0.0,4.0,0.0,1.2,288.94,Immenrode,DE
1126,48.606,9.101,5.021818181818182,0.0,1.0,103.002,1.88,72.0,0.0,4.0,0.0,1.2,291.9,Dettenhausen,DE
205,48.554,9.294,5.021818181818182,0.0,1.0,103.002,1.88,72.0,0.0,4.0,0.0,1.2,291.01,Metzingen,DE
1227,52.012,8.541,2.9481481481481477,0.0,1.0,80.0021,3.43,79.0,0.0,4.0,0.0,1.2,289.67,Kreisfreie Stadt Bielefeld,DE
2481,48.731,9.111,7.822736842105264,0.0,1.0,57.5076,1.31,78.0,0.0,4.0,1.0,1.2,287.56,Büsnau,DE
305,48.579,9.179,7.822736842105264,0.0,1.0,57.5076,1.31,78.0,0.0,4.0,1.0,1.2,286.87,Pliezhausen,DE
3271,50.021,8.424,5.021818181818182,0.0,1.0,24.5076,1.96,85.0,0.0,4.0,1.0,1.2,287.57,Florsheim,DE
681,48.686,9.017,7.822736842105264,0.0,1.0,57.5076,1.31,78.0,0.0,4.0,1.0,1.2,287.89,Boblingen,DE
2867,48.887,8.728,7.822736842105264,0.0,1.0,57.5076,1.31,78.0,0.0,4.0,1.0,1.2,287.86,Pforzheim,DE
4959,48.199,11.532,5.021818181818182,0.005,1.0,82.0076,2.11,79.0,0.0,4.0,1.0,1.2,285.68,Kolonie Lerchenau,DE
2007,48.835,9.221,5.021818181818182,0.0,1.0,103.002,1.88,72.0,0.0,4.0,0.0,1.2,291.9,Stuttgart Muehlhausen,DE
3495,48.254,12.414,5.021818181818182,0.0,1.0,75.5021,1.98,65.0,0.0,4.0,0.0,1.2,290.71,Ampfing,DE
4116,50.885,7.062,5.021818181818182,0.0,1.0,120.002,2.23,79.0,0.0,4.0,0.0,1.2,291.54,Porz am Rhein,DE
1307,48.697,9.114,5.021818181818182,0.0,1.0,103.002,1.88,72.0,0.0,4.0,0.0,1.2,291.9,Europe,DE
4098,52.173,7.546,2.9481481481481477,0.0,1.0,83.0021,3.73,80.0,0.0,4.0,0.0,1.2,290.41,Emsdetten,DE
4597,48.646,8.906,5.021818181818182,0.0,1.0,103.002,1.88,72.0,0.0,4.0,0.0,1.2,292.34,Gartringen,DE
2435,51.022,6.764,5.021818181818182,0.0,1.0,104.002,2.38,76.0,0.0,4.0,0.0,1.2,292.17,Stommeln,DE
3178,50.112,8.627,5.021818181818182,0.0,1.0,83.0021,1.88,82.0,0.0,4.0,0.0,1.2,291.73,Bockenheim,DE
2973,51.404,7.231,2.9481481481481477,0.0,1.0,91.0021,3.23,72.0,0.0,4.0,0.0,1.2,291.52,Ostherbede,DE
5261,48.25,11.64,5.021818181818182,0.0,1.0,73.0021,2.03,68.0,0.0,4.0,0.0,1.2,290.61,Garching bei Munchen,DE
2858,53.249,10.406,2.062325581395349,0.0,1.0,79.5021,4.48,76.0,0.0,4.0,0.0,1.2,289.87,Luneburg,DE
3957,48.689,9.011,5.021818181818182,0.0,1.0,103.002,1.88,72.0,0.0,4.0,0.0,1.2,292.36,Boblingen,DE
520,48.533,9.059,5.021818181818182,0.0,1.0,103.002,1.88,72.0,0.0,4.0,0.0,1.2,291.9,Tuebingen,DE
4763,50.739,7.123,5.021818181818182,0.0,1.0,101.008,1.81,79.0,0.0,4.0,1.0,1.2,287.86,Limperich,DE
679,48.846,9.23,7.822736842105264,0.0,1.0,57.5076,1.31,78.0,0.0,4.0,1.0,1.2,287.56,Stuttgart Muehlhausen,DE
3553,53.557,10.007,2.062325581395349,0.0,1.0,79.5021,4.48,76.0,0.0,4.0,0.0,1.2,290.06,St. Georg,DE
3602,50.95,6.92,5.021818181818182,0.0,1.0,120.002,2.23,79.0,0.0,4.0,0.0,1.2,291.58,Koeln-Ehrenfeld,DE
4373,51.099,6.814,5.021818181818182,0.0,1.0,94.5076,2.06,76.0,0.0,4.0,1.0,1.2,289.09,Dormagen,DE
2800,50.897,6.9,5.021818181818182,0.0,1.0,94.5076,2.06,76.0,0.0,4.0,1.0,1.2,289.09,Kriel,DE
1831,48.107,11.708,5.021818181818182,0.0,1.0,77.0021,1.78,64.0,0.0,4.0,0.0,1.2,290.04,Haar,DE
3193,50.86,13.465,4.6160000000000005,0.8675,1.0,156.002,1.88,98.0,0.0,4.0,0.0,1.2,287.7,Oberbobritzsch,DE
4010,48.2,11.547,5.021818181818182,0.0,1.0,73.0021,2.03,68.0,0.0,4.0,0.0,1.2,290.46,Kolonie Lerchenau,DE
5206,48.687,8.998,5.021818181818182,0.0,1.0,103.002,1.88,72.0,0.0,4.0,0.0,1.2,292.36,Boblingen,DE
2492,48.81,9.176,5.021818181818182,0.0,1.0,103.002,1.88,72.0,0.0,4.0,0.0,1.2,291.9,Stuttgart Feuerbach,DE
2464,54.327,10.074,1.3800000000000008,0.0,1.0,84.5021,9.08,98.0,0.0,4.0,0.0,1.2,289.43,Wittland,DE
992,51.44,6.646,5.021818181818182,0.0,1.0,84.5021,3.08,74.0,0.0,4.0,0.0,1.2,292.24,Moers,DE
5487,54.3,10.147,1.3800000000000008,0.0,1.0,84.5021,9.08,98.0,0.0,4.0,0.0,1.2,289.22,Sophienhöhe,DE
5286,53.111,7.357,2.9481481481481477,0.0125,1.0,81.5021,3.63,85.0,0.0,4.0,0.0,1.2,290.46,Völlenerfehn,DE
795,48.771,9.188,5.021818181818182,0.0,1.0,103.002,1.88,72.0,0.0,4.0,0.0,1.2,291.9,Gablenberg,DE
2202,48.654,9.251,5.021818181818182,0.0,1.0,103.002,1.88,72.0,0.0,4.0,0.0,1.2,290.97,Filderstadt,DE
4628,48.679,9.021,7.822736842105264,0.0,1.0,57.5076,1.31,78.0,0.0,4.0,1.0,1.2,287.89,Boblingen,DE
1565,47.675,9.318,4.6160000000000005,0.0,1.0,349.508,0.91,99.0,0.0,4.0,1.0,1.2,285.12,Hagnau,DE
3264,49.464,11.1,5.021818181818182,0.0,1.0,89.5076,2.01,78.0,0.0,4.0,1.0,1.2,285.32,Lohermoos,DE
5389,49.475,11.098,5.021818181818182,0.0,1.0,88.5076,2.01,84.0,0.0,4.0,1.0,1.2,284.79,Lohermoos,DE
1030,48.774,9.203,7.822736842105264,0.0,1.0,57.5076,1.31,78.0,0.0,4.0,1.0,1.2,287.56,Gablenberg,DE
5783,48.124,11.554,5.021818181818182,0.005,1.0,82.0076,2.11,79.0,0.0,4.0,1.0,1.2,285.68,Altstadt,DE
3243,51.446,7.164,2.9481481481481477,0.0,1.0,91.0021,3.23,72.0,0.0,4.0,0.0,1.2,291.51,Stalleicken,DE
5042,50.927,6.857,5.021818181818182,0.0,1.0,104.002,2.38,76.0,0.0,4.0,0.0,1.2,292.17,Lind,DE
3226,49.883,8.665,5.021818181818182,0.0,1.0,63.5021,1.98,82.0,0.0,4.0,0.0,1.2,292.13,Darmstadt,DE
1264,47.986,7.856,7.822736842105264,0.0,1.0,344.002,1.43,65.0,0.0,4.0,0.0,1.2,292.75,Freiburg,DE
4676,48.181,11.478,5.021818181818182,0.0,1.0,73.0021,2.03,68.0,0.0,4.0,0.0,1.2,290.26,Nymphenburg,DE
1245,51.44,6.662,5.021818181818182,0.0,1.0,75.0076,2.21,70.0,0.0,4.0,1.0,1.2,289.82,Moers,DE
3977,50.958,11.062,4.6160000000000005,0.9725,1.0,77.0076,1.31,98.0,0.0,4.0,1.0,1.2,285.73,Windischholzhausen,DE
3358,52.54,13.764,4.6160000000000005,0.34,1.0,100.502,4.58,94.0,0.0,4.0,0.0,1.2,289.19,Petershagen,DE
5492,53.541,10.224,4.6160000000000005,0.7525,1.0,86.0076,4.56,93.0,0.0,4.0,1.0,1.2,287.11,Glinde,DE
4690,48.274,8.92,4.6160000000000005,0.0,1.0,99.0076,1.06,90.0,0.0,4.0,1.0,1.2,285.93,Zollernalbkreis,DE
2187,52.013,8.54,2.9481481481481477,0.0575,1.0,68.5076,3.51,82.0,0.0,4.0,1.0,1.2,287.27,Kreisfreie Stadt Bielefeld,DE
5731,51.951,7.669,2.9481481481481477,0.0075,1.0,68.5076,3.66,78.0,0.0,4.0,1.0,1.2,288.66,Muenster,DE
980,53.515,9.993,2.062325581395349,0.0,1.0,79.5021,4.48,76.0,0.0,4.0,0.0,1.2,289.66,Kleiner Grasbrook,DE
5724,50.891,6.908,5.021818181818182,0.0,1.0,101.008,1.81,79.0,0.0,4.0,1.0,1.2,288.85,Kriel,DE
445,48.774,9.237,7.822736842105264,0.0,1.0,57.5076,1.31,78.0,0.0,4.0,1.0,1.2,287.56,Hedelfingen,DE
4774,49.835,8.693,5.021818181818182,0.0,1.0,24.5076,1.96,85.0,0.0,4.0,1.0,1.2,287.57,Traisa,DE
4113,51.042,7.055,5.021818181818182,0.0,1.0,120.002,2.23,79.0,0.0,4.0,0.0,1.2,291.25,Lützenkirchen,DE
2882,48.081,11.603,5.021818181818182,0.0,1.0,73.0021,2.03,68.0,0.0,4.0,0.0,1.2,290.13,Unterhaching,DE
2821,48.762,9.168,5.021818181818182,0.0,1.0,103.002,1.88,72.0,0.0,4.0,0.0,1.2,291.9,Degerloch,DE
2484,48.964,9.116,5.021818181818182,0.0,1.0,87.0021,1.93,65.0,0.0,4.0,0.0,1.2,292.23,Bietigheim,DE
3145,48.753,9.172,5.021818181818182,0.0,1.0,103.002,1.88,72.0,0.0,4.0,0.0,1.2,291.9,Degerloch,DE
482,48.442,9.997,5.021818181818182,0.0,1.0,92.5021,2.13,77.0,0.0,4.0,0.0,1.2,290.49,Böfingen,DE
4974,51.29,9.641,0.8627272727272728,0.005,1.0,82.0021,2.08,86.0,0.0,4.0,0.0,1.2,289.29,Kaufungen,DE
801,48.767,9.271,5.021818181818182,0.0,1.0,103.002,1.88,72.0,0.0,4.0,0.0,1.2,291.9,Rüdern,DE
5503,51.457,7.567,5.021818181818182,0.0,1.0,82.5076,2.31,72.0,0.0,4.0,1.0,1.2,289.38,Schwerterheide,DE
5129,50.945,6.954,5.021818181818182,0.0,1.0,101.008,1.81,79.0,0.0,4.0,1.0,1.2,288.85,Altstadt Nord,DE
2913,48.778,9.166,5.021818181818182,0.0,1.0,103.002,1.88,72.0,0.0,4.0,0.0,1.2,291.9,Stuttgart,DE
1973,48.392,9.96,5.021818181818182,0.0,1.0,78.0076,2.41,80.0,0.0,4.0,1.0,1.2,285.62,Ulm,DE
2614,48.729,9.122,7.822736842105264,0.0,1.0,57.5076,1.31,78.0,0.0,4.0,1.0,1.2,287.56,Sonnenberg,DE
4566,51.051,14.609,4.6160000000000005,0.0050000000000003,1.0,135.008,2.21,91.0,0.0,4.0,1.0,1.2,284.69,Durrhennersdorf,DE
5475,50.001,9.195,5.021818181818182,0.0,1.0,55.5076,1.86,81.0,0.0,4.0,1.0,1.2,287.65,Hosbach,DE
4985,49.902,8.599,5.021818181818182,0.0,1.0,24.5076,1.96,85.0,0.0,4.0,1.0,1.2,287.57,Weiterstadt,DE
3199,48.732,9.146,5.021818181818182,0.0,1.0,103.002,1.88,72.0,0.0,4.0,0.0,1.2,291.9,Sonnenberg,DE
1429,51.442,7.016,2.9481481481481477,0.0,1.0,91.0021,3.23,72.0,0.0,4.0,0.0,1.2,291.47,Essen,DE
4898,48.415,10.147,5.021818181818182,0.0,1.0,92.5021,2.13,77.0,0.0,4.0,0.0,1.2,290.08,Silheim,DE
3901,49.908,9.157,5.021818181818182,0.0,1.0,79.0021,1.88,75.0,0.0,4.0,0.0,1.2,291.87,Sulzbach am Main,DE
1446,51.523,7.266,2.9481481481481477,0.0,1.0,91.0021,3.23,72.0,0.0,4.0,0.0,1.2,291.61,Bockholt,DE
4068,48.159,11.619,5.021818181818182,0.0,1.0,73.0021,2.03,68.0,0.0,4.0,0.0,1.2,290.46,Bogenhausen,DE
497,48.519,9.052,5.021818181818182,0.0,1.0,103.002,1.88,72.0,0.0,4.0,0.0,1.2,291.9,Tuebingen,DE
1885,51.568,6.998,2.9481481481481477,0.0,1.0,91.0021,3.23,72.0,0.0,4.0,0.0,1.2,291.31,Gladbeck,DE
1354,48.972,9.277,5.021818181818182,0.0,1.0,87.0021,1.93,65.0,0.0,4.0,0.0,1.2,291.27,Steinheim am der Murr,DE
5301,51.029,13.749,4.6160000000000005,0.035,1.0,151.002,1.93,93.0,0.0,4.0,0.0,1.2,288.26,Mockritz,DE
4728,48.28,11.557,5.021818181818182,0.0,1.0,73.0021,2.03,68.0,0.0,4.0,0.0,1.2,290.4,Unterschleissheim,DE
2111,52.538,13.4,1.3800000000000008,0.3825,1.0,92.0021,4.63,90.0,0.0,4.0,0.0,1.2,288.17,Berlin,DE
2302,51.999,8.594,2.9481481481481477,0.0575,1.0,68.5076,3.51,82.0,0.0,4.0,1.0,1.2,287.27,Kreisfreie Stadt Bielefeld,DE
3732,50.098,8.57,5.021818181818182,0.0,1.0,83.0021,1.88,82.0,0.0,4.0,0.0,1.2,291.73,Nied,DE
5493,49.865,8.657,5.021818181818182,0.0,1.0,63.5021,1.98,82.0,0.0,4.0,0.0,1.2,292.13,Darmstadt,DE
5842,52.275,9.945,4.6160000000000005,0.03,1.0,86.0076,2.91,92.0,0.0,4.0,1.0,1.2,286.58,Lühnde,DE
2541,52.065,8.61,2.9481481481481477,0.0575,1.0,68.5076,3.51,82.0,0.0,4.0,1.0,1.2,287.44,Wellbach,DE
1830,48.118,11.599,5.021818181818182,0.005,1.0,82.0076,2.11,79.0,0.0,4.0,1.0,1.2,285.68,Altstadt,DE
1575,50.161,8.664,0.8627272727272728,0.0,1.0,43.5076,1.26,86.0,0.0,4.0,1.0,1.2,288.52,Heddernheim,DE
2631,48.413,9.952,5.021818181818182,0.0,1.0,78.0076,2.41,80.0,0.0,4.0,1.0,1.2,285.62,Ulm,DE
147,50.652,12.215,4.6160000000000005,0.0475,1.0,98.0076,1.61,90.0,0.0,4.0,1.0,1.2,284.48,Tryfle,DE
1698,53.612,9.906,2.062325581395349,0.0,1.0,79.5021,4.48,76.0,0.0,4.0,0.0,1.2,290.06,Eidelstedt,DE
4716,48.669,8.997,5.021818181818182,0.0,1.0,103.002,1.88,72.0,0.0,4.0,0.0,1.2,292.36,Boblingen,DE
356,48.111,11.581,5.021818181818182,0.0,1.0,73.0021,2.03,68.0,0.0,4.0,0.0,1.2,290.26,Altstadt,DE
5621,50.865,12.185,4.6160000000000005,1.8,1.0,92.0021,1.18,99.0,0.0,4.0,0.0,1.2,286.61,Ronneburg,DE
4525,52.208,8.805,5.021818181818182,0.03,1.0,76.5021,2.98,82.0,0.0,4.0,0.0,1.2,289.83,Bad Oeynhausen,DE
4577,47.354,8.528,7.822736842105264,0.0,1.0,67.0021,1.43,75.0,0.0,4.0,0.0,1.2,292.56,Zuerich (Kreis 2) / Wollishofen,DE
2856,50.12,8.667,0.8627272727272728,0.0,1.0,43.5076,1.26,86.0,0.0,4.0,1.0,1.2,288.52,Frankfurt am Main,DE
2557,53.564,9.927,4.6160000000000005,0.7525,1.0,86.0076,4.56,93.0,0.0,4.0,1.0,1.2,287.23,Altona,DE
2099,48.853,9.301,5.021818181818182,0.0,1.0,76.5076,1.71,80.0,0.0,4.0,1.0,1.2,286.61,Waldmühle,DE
223,48.755,9.295,7.822736842105264,0.0,1.0,57.5076,1.31,78.0,0.0,4.0,1.0,1.2,287.56,Rüdern,DE
609,48.8,9.216,5.021818181818182,0.0,1.0,103.002,1.88,72.0,0.0,4.0,0.0,1.2,291.9,Berg,DE
4030,53.442,10.004,4.6160000000000005,0.7525,1.0,86.0076,4.56,93.0,0.0,4.0,1.0,1.2,287.12,Wilstorf,DE
4529,51.626,7.516,5.021818181818182,0.0,1.0,82.5076,2.31,72.0,0.0,4.0,1.0,1.2,289.14,Lunen,DE
4694,49.539,8.39,5.021818181818182,0.0,1.0,63.5021,1.98,82.0,0.0,4.0,0.0,1.2,291.93,Edigheim,DE
281,48.742,9.308,5.021818181818182,0.0,1.0,76.5076,1.71,80.0,0.0,4.0,1.0,1.2,286.61,Esslingen,DE
4388,53.584,9.818,2.062325581395349,0.0025,1.0,77.0021,4.43,77.0,0.0,4.0,0.0,1.2,290.1,Marienhöhe,DE
2475,48.695,10.159,5.021818181818182,0.0,1.0,78.0076,2.41,80.0,0.0,4.0,1.0,1.2,285.61,Landkreis Heidenheim,DE
530,48.704,9.21,5.021818181818182,0.0,1.0,103.002,1.88,72.0,0.0,4.0,0.0,1.2,291.9,Plieningen,DE
4166,51.103,7.15,5.021818181818182,0.0,1.0,120.002,2.23,79.0,0.0,4.0,0.0,1.2,291.25,Hölverscheid,DE
978,48.737,9.104,5.021818181818182,0.0,1.0,103.002,1.88,72.0,0.0,4.0,0.0,1.2,291.9,Büsnau,DE
1284,52.025,8.609,2.9481481481481477,0.0,1.0,80.0021,3.43,79.0,0.0,4.0,0.0,1.2,289.69,Lübrassen,DE
160,48.781,9.839,5.021818181818182,0.0,1.0,100.502,1.98,71.0,0.0,4.0,0.0,1.2,290.68,Waldstetten,DE
943,48.695,9.17,7.822736842105264,0.0,1.0,57.5076,1.31,78.0,0.0,4.0,1.0,1.2,287.56,Leinfelden-Echterdingen,DE
4399,49.72,7.297,5.021818181818182,0.0,1.0,60.0076,1.66,77.0,0.0,4.0,1.0,1.2,286.75,Idar,DE
887,51.194,7.136,5.021818181818182,0.0,1.0,101.008,1.81,79.0,0.0,4.0,1.0,1.2,288.49,Stöcken,DE
1057,51.467,7.1,5.021818181818182,0.0,1.0,75.0076,2.21,71.0,0.0,4.0,1.0,1.2,289.23,Sevinghausen,DE
1599,48.759,9.158,5.021818181818182,0.0,1.0,103.002,1.88,72.0,0.0,4.0,0.0,1.2,291.9,Heslach,DE
486,48.734,9.34,5.021818181818182,0.0,1.0,100.502,1.98,71.0,0.0,4.0,0.0,1.2,291.8,Esslingen,DE
1343,48.486,9.234,5.021818181818182,0.0,1.0,103.002,1.88,72.0,0.0,4.0,0.0,1.2,291.02,Reutlingen,DE
4961,52.467,13.342,4.6160000000000005,0.3825,1.0,99.0021,4.08,98.0,0.0,4.0,0.0,1.2,287.69,Berlin Schoeneberg,DE
3217,49.702,8.618,5.021818181818182,0.0,1.0,63.5021,1.98,82.0,0.0,4.0,0.0,1.2,292.13,Bensheim,DE
2825,51.325,12.343,4.6160000000000005,0.06,1.0,87.0021,2.13,92.0,0.0,4.0,0.0,1.2,288.48,Plagwitz,DE
257,48.791,8.964,5.021818181818182,0.0,1.0,103.002,1.88,72.0,0.0,4.0,0.0,1.2,292.35,Rutesheim,DE
3778,50.076,8.659,5.021818181818182,0.0,1.0,63.5021,1.98,82.0,0.0,4.0,0.0,1.2,292.13,Niederrad,DE
1647,48.813,9.28,5.021818181818182,0.0,1.0,103.002,1.88,72.0,0.0,4.0,0.0,1.2,291.9,Fellbach,DE
2305,51.922,8.895,5.021818181818182,0.03,1.0,76.5021,2.98,82.0,0.0,4.0,0.0,1.2,289.14,Falkenkrug,DE
4376,50.867,12.75,4.6160000000000005,1.87,1.0,181.502,1.88,100.0,0.0,4.0,0.0,1.2,286.84,Limbach-Oberfrohna,DE
254,48.773,8.847,5.021818181818182,0.0,1.0,103.002,1.88,72.0,0.0,4.0,0.0,1.2,292.34,Weil der Stadt,DE
951,48.757,9.256,5.021818181818182,0.0,1.0,103.002,1.88,72.0,0.0,4.0,0.0,1.2,291.9,Hedelfingen,DE
4425,53.568,13.265,0.8627272727272728,0.4125,1.0,102.002,5.13,87.0,0.0,4.0,0.0,1.2,285.99,Neubrandenburg,DE
3976,48.811,9.179,7.822736842105264,0.0,1.0,57.5076,1.31,78.0,0.0,4.0,1.0,1.2,287.56,Stuttgart Feuerbach,DE
4870,53.595,9.946,4.6160000000000005,0.7525,1.0,86.0076,4.56,93.0,0.0,4.0,1.0,1.2,287.23,Eppendorf,DE
1699,48.057,7.809,7.822736842105264,0.0,1.0,349.508,1.41,80.0,0.0,4.0,1.0,1.2,287.06,Benzhausen,DE
3815,48.153,11.537,5.021818181818182,0.0,1.0,73.0021,2.03,68.0,0.0,4.0,0.0,1.2,290.26,Maxvorstadt,DE
4846,52.665,13.156,1.3800000000000008,0.3825,1.0,92.0021,4.63,90.0,0.0,4.0,0.0,1.2,288.17,Velten,DE
4842,52.526,13.326,4.6160000000000005,0.345,1.0,100.008,4.36,94.0,0.0,4.0,1.0,1.2,287.2,Moabit,DE
924,48.741,9.128,5.021818181818182,0.0,1.0,103.002,1.88,72.0,0.0,4.0,0.0,1.2,291.9,Heslach,DE
3404,50.93,6.924,5.021818181818182,0.0,1.0,101.008,1.81,79.0,0.0,4.0,1.0,1.2,288.85,Lindenthal,DE
2928,51.46,7.15,5.021818181818182,0.0,1.0,75.0076,2.21,71.0,0.0,4.0,1.0,1.2,289.23,Stalleicken,DE
4570,51.443,6.996,2.9481481481481477,0.0,1.0,91.0021,3.23,72.0,0.0,4.0,0.0,1.2,291.47,Essen,DE
3830,47.745,8.961,4.6160000000000005,0.0,1.0,99.0076,1.06,90.0,0.0,4.0,1.0,1.2,285.62,Radolfzell am Bodensee,DE
1452,47.739,7.998,7.822736842105264,0.0,1.0,344.002,1.43,65.0,0.0,4.0,0.0,1.2,292.59,Todtmoos,DE
1994,49.907,10.907,0.8627272727272728,0.0,1.0,89.5021,1.98,86.0,0.0,4.0,0.0,1.2,290.31,Kramersfeld,DE
3387,50.836,6.88,5.021818181818182,0.0,1.0,104.002,2.38,76.0,0.0,4.0,0.0,1.2,292.17,Bruhl,DE
4522,48.464,11.925,5.021818181818182,0.0,1.0,78.0021,2.13,68.0,0.0,4.0,0.0,1.2,290.95,Moosburg,DE
1998,48.778,9.131,5.021818181818182,0.0,1.0,103.002,1.88,72.0,0.0,4.0,0.0,1.2,291.9,Botnang,DE
1155,48.415,9.118,5.021818181818182,0.0,1.0,103.002,1.88,72.0,0.0,4.0,0.0,1.2,290.94,Gönningen,DE
3520,50.799,6.073,5.021818181818182,0.0,1.0,82.5021,2.23,75.0,0.0,4.0,0.0,1.2,292.64,Hörn,DE
1812,47.814,11.133,5.021818181818182,0.0,1.0,73.0021,2.03,68.0,0.0,4.0,0.0,1.2,290.15,Polling,DE
995,48.725,8.964,5.021818181818182,0.0,1.0,103.002,1.88,72.0,0.0,4.0,0.0,1.2,292.39,Magstadt,DE
4237,49.803,9.943,5.021818181818182,0.0,1.0,84.5021,2.13,85.0,0.0,4.0,0.0,1.2,290.22,Wuerzburg,DE
4960,48.199,11.532,5.021818181818182,0.005,1.0,82.0076,2.11,79.0,0.0,4.0,1.0,1.2,285.68,Kolonie Lerchenau,DE
5414,51.512,7.505,2.9481481481481477,0.0,1.0,91.0021,3.23,72.0,0.0,4.0,0.0,1.2,291.31,Körne,DE
1573,53.565,9.965,4.6160000000000005,0.7525,1.0,86.0076,4.56,93.0,0.0,4.0,1.0,1.2,287.23,St. Pauli,DE
5749,49.204,8.648,5.021818181818182,0.0,1.0,19.0076,2.06,73.0,0.0,4.0,1.0,1.2,287.77,Mingolsheim,DE
5643,54.114,12.058,2.062325581395349,0.125,1.0,101.508,5.11,81.0,0.0,4.0,1.0,1.2,287.12,Schmarl,DE
908,51.192,6.787,5.021818181818182,0.0,1.0,94.5076,2.06,76.0,0.0,4.0,1.0,1.2,288.86,Itter,DE
2060,51.0,10.0,4.6160000000000005,0.1075,1.0,72.5076,1.41,94.0,0.0,4.0,1.0,1.2,286.13,Richelsdorf,DE
3788,53.046,8.277,4.6160000000000005,0.17,1.0,80.5076,2.16,94.0,0.0,4.0,1.0,1.2,287.32,Sandkrug,DE
847,48.954,9.474,5.021818181818182,0.0,1.0,101.002,1.93,64.0,0.0,4.0,0.0,1.2,291.09,Unterweissach,DE
2929,51.46,7.15,2.9481481481481477,0.0,1.0,91.0021,3.23,72.0,0.0,4.0,0.0,1.2,291.51,Stalleicken,DE
2700,48.795,9.204,5.021818181818182,0.0,1.0,103.002,1.88,72.0,0.0,4.0,0.0,1.2,291.9,Berg,DE
3407,50.241,8.406,5.021818181818182,0.0,1.0,83.0021,1.88,82.0,0.0,4.0,0.0,1.2,290.1,Oberreifenberg,DE
232,48.804,9.233,5.021818181818182,0.0,1.0,103.002,1.88,72.0,0.0,4.0,0.0,1.2,291.9,Berg,DE
4900,49.444,11.052,5.021818181818182,0.0,1.0,107.002,1.98,71.0,0.0,4.0,0.0,1.2,289.74,Nuremberg,DE
4011,48.682,9.024,5.021818181818182,0.0,1.0,103.002,1.88,72.0,0.0,4.0,0.0,1.2,292.36,Boblingen,DE
2062,51.326,12.335,4.6160000000000005,0.06,1.0,87.0021,2.13,92.0,0.0,4.0,0.0,1.2,288.48,Plagwitz,DE
179,48.787,9.011,5.021818181818182,0.0,1.0,103.002,1.88,72.0,0.0,4.0,0.0,1.2,292.36,Leonberg,DE
2206,48.02,11.477,5.021818181818182,0.0,1.0,73.0021,2.03,68.0,0.0,4.0,0.0,1.2,290.14,Baierbrunn,DE
1518,53.12,8.1,4.6160000000000005,0.225,1.0,72.5021,3.28,88.0,0.0,4.0,0.0,1.2,289.7,Friedrichsfehn,DE
3160,51.578,7.109,5.021818181818182,0.0,1.0,75.0076,2.21,71.0,0.0,4.0,1.0,1.2,289.38,Herten,DE
3833,51.454,7.036,5.021818181818182,0.0,1.0,75.0076,2.21,71.0,0.0,4.0,1.0,1.2,289.23,Essen,DE
2599,48.81,8.954,7.822736842105264,0.0,1.0,57.5076,1.31,78.0,0.0,4.0,1.0,1.2,287.88,Rutesheim,DE
3450,48.301,11.628,5.021818181818182,0.0,1.0,56.0076,2.46,81.0,0.0,4.0,1.0,1.2,285.09,Eching,DE
1839,48.943,9.101,5.021818181818182,0.0,1.0,50.5076,1.66,74.0,0.0,4.0,1.0,1.2,286.77,Bietigheim,DE
5336,48.068,7.884,7.822736842105264,0.0,1.0,349.508,1.41,80.0,0.0,4.0,1.0,1.2,287.07,Denzlingen,DE
4767,53.576,9.745,2.062325581395349,0.0725,1.0,75.5076,4.21,77.0,0.0,4.0,1.0,1.2,288.11,Rissen,DE
2196,52.017,8.539,2.9481481481481477,0.0,1.0,80.0021,3.43,79.0,0.0,4.0,0.0,1.2,289.68,Kreisfreie Stadt Bielefeld,DE
1213,50.52,12.132,5.021818181818182,0.035,1.0,114.502,1.88,85.0,0.0,4.0,0.0,1.2,286.49,Zwoschwitz,DE
3210,48.79,9.363,5.021818181818182,0.0,1.0,100.502,1.98,71.0,0.0,4.0,0.0,1.2,291.8,Weinstadt-Endersbach,DE
1553,48.745,9.171,5.021818181818182,0.0,1.0,103.002,1.88,72.0,0.0,4.0,0.0,1.2,291.9,Degerloch,DE
2649,52.402,9.692,4.6160000000000005,0.1575,1.0,75.0021,2.68,93.0,0.0,4.0,0.0,1.2,289.09,Limmer,DE
4510,49.48,10.995,5.021818181818182,0.0,1.0,107.002,1.98,71.0,0.0,4.0,0.0,1.2,290.02,Furth,DE
5403,51.054,6.948,5.021818181818182,0.0,1.0,120.002,2.23,79.0,0.0,4.0,0.0,1.2,291.48,Voigtslach,DE
3936,48.143,11.491,5.021818181818182,0.0,1.0,73.0021,2.03,68.0,0.0,4.0,0.0,1.2,290.47,Nymphenburg,DE
4867,48.085,10.862,5.021818181818182,0.0,1.0,68.5021,2.28,70.0,0.0,4.0,0.0,1.2,289.83,Kaufering,DE
1432,48.19,11.367,5.021818181818182,0.0,1.0,73.0021,2.03,68.0,0.0,4.0,0.0,1.2,290.47,Gröbenzell,DE
4581,53.582,10.054,4.6160000000000005,0.7525,1.0,86.0076,4.56,93.0,0.0,4.0,1.0,1.2,287.43,Eilbek,DE
1615,47.983,7.809,7.822736842105264,0.0,1.0,349.508,1.41,80.0,0.0,4.0,1.0,1.2,287.05,Merzhausen,DE
2008,48.835,9.221,7.822736842105264,0.0,1.0,57.5076,1.31,78.0,0.0,4.0,1.0,1.2,287.56,Stuttgart Muehlhausen,DE
4133,51.037,7.007,5.021818181818182,0.0,1.0,101.008,1.81,79.0,0.0,4.0,1.0,1.2,288.67,Leverkusen,DE
2626,53.261,10.435,4.6160000000000005,0.7525,1.0,86.0076,4.56,93.0,0.0,4.0,1.0,1.2,287.12,Adendorf,DE
4509,48.815,9.23,5.021818181818182,0.0,1.0,103.002,1.88,72.0,0.0,4.0,0.0,1.2,291.9,Steinhaldenfeld,DE
1983,52.402,9.692,4.6160000000000005,0.1575,1.0,75.0021,2.68,93.0,0.0,4.0,0.0,1.2,289.09,Limmer,DE
2558,53.488,10.006,2.062325581395349,0.0,1.0,79.5021,4.48,76.0,0.0,4.0,0.0,1.2,289.86,Neuland,DE
2765,52.623,13.679,4.6160000000000005,0.34,1.0,100.502,4.58,94.0,0.0,4.0,0.0,1.2,289.19,Werneuchen,DE
5260,48.992,12.129,5.021818181818182,0.0,1.0,119.502,1.98,75.0,0.0,4.0,0.0,1.2,290.29,Höfling,DE
1048,51.443,7.197,2.9481481481481477,0.0,1.0,91.0021,3.23,72.0,0.0,4.0,0.0,1.2,291.52,Baak,DE
1330,52.422,10.749,4.6160000000000005,0.04,1.0,82.5021,3.13,95.0,0.0,4.0,0.0,1.2,288.76,Sandkamp,DE
2555,53.558,10.062,2.062325581395349,0.0,1.0,79.5021,4.48,76.0,0.0,4.0,0.0,1.2,290.07,Eilbek,DE
1218,51.495,6.67,5.021818181818182,0.0,1.0,84.5021,3.08,74.0,0.0,4.0,0.0,1.2,291.93,Beeckerwerth,DE
1743,50.885,6.891,5.021818181818182,0.0,1.0,104.002,2.38,76.0,0.0,4.0,0.0,1.2,292.17,Hurth,DE
1090,48.705,9.121,5.021818181818182,0.0,1.0,103.002,1.88,72.0,0.0,4.0,0.0,1.2,291.9,Europe,DE
3424,50.107,8.584,0.8627272727272728,0.0,1.0,43.5076,1.26,86.0,0.0,4.0,1.0,1.2,288.52,Nied,DE
4430,48.139,11.488,5.021818181818182,0.0,1.0,73.0021,2.03,68.0,0.0,4.0,0.0,1.2,290.47,Nymphenburg,DE
2409,48.096,7.96,7.822736842105264,0.0,1.0,349.508,1.41,80.0,0.0,4.0,1.0,1.2,287.07,Kollnau,DE
3653,54.326,10.116,1.3800000000000008,0.0175,1.0,88.0076,9.56,100.0,0.0,4.0,1.0,1.2,288.65,Kiel,DE
4891,49.48,10.995,5.021818181818182,0.0,1.0,89.5076,2.01,78.0,0.0,4.0,1.0,1.2,285.37,Furth,DE
1459,47.877,7.655,7.822736842105264,0.0,1.0,349.508,1.41,80.0,0.0,4.0,1.0,1.2,286.84,Heitersheim,DE
5319,49.8,9.99,4.6160000000000005,0.0,1.0,48.0076,2.11,88.0,0.0,4.0,1.0,1.2,286.0,Rottendorf,DE
2702,48.673,9.451,5.021818181818182,0.0,1.0,76.5076,1.71,80.0,0.0,4.0,1.0,1.2,285.87,Notzingen,DE
261,48.261,10.987,5.021818181818182,0.0,1.0,64.5076,2.56,70.0,0.0,4.0,1.0,1.2,285.71,Mering,DE
1645,48.744,9.154,7.822736842105264,0.0,1.0,57.5076,1.31,78.0,0.0,4.0,1.0,1.2,287.56,Sonnenberg,DE
1526,49.983,8.241,5.021818181818182,0.0,1.0,63.5021,1.98,82.0,0.0,4.0,0.0,1.2,291.3,Mainz,DE
4482,49.118,10.763,5.021818181818182,0.0,1.0,107.002,1.98,71.0,0.0,4.0,0.0,1.2,290.58,Gunzenhausen,DE
1485,48.769,9.273,5.021818181818182,0.0,1.0,103.002,1.88,72.0,0.0,4.0,0.0,1.2,291.9,Rüdern,DE
4614,51.363,6.947,2.9481481481481477,0.0,1.0,91.0021,3.23,72.0,0.0,4.0,0.0,1.2,291.58,Kettwig,DE
769,48.697,9.116,5.021818181818182,0.0,1.0,103.002,1.88,72.0,0.0,4.0,0.0,1.2,291.9,Europe,DE
3933,50.061,8.524,5.021818181818182,0.0,1.0,63.5021,1.98,82.0,0.0,4.0,0.0,1.2,292.13,Kelsterbach,DE
2487,49.145,8.212,5.021818181818182,0.0,1.0,65.5021,2.13,72.0,0.0,4.0,0.0,1.2,292.41,Herxheimweyher,DE
4200,50.398,8.813,0.8627272727272728,0.0,1.0,93.0021,1.88,86.0,0.0,4.0,0.0,1.2,290.28,Wolfersheim,DE
5200,47.869,11.893,5.021818181818182,0.0,1.0,77.0021,1.78,64.0,0.0,4.0,0.0,1.2,289.46,Schöffleiten,DE
774,48.81,9.15,5.021818181818182,0.0,1.0,103.002,1.88,72.0,0.0,4.0,0.0,1.2,291.9,Stuttgart Feuerbach,DE
4572,51.334,6.339,5.021818181818182,0.0,1.0,75.0076,2.21,70.0,0.0,4.0,1.0,1.2,290.02,Grefrath,DE
4454,49.492,8.462,5.021818181818182,0.0,1.0,19.0076,2.06,73.0,0.0,4.0,1.0,1.2,287.31,Mannheim,DE
5789,49.958,8.199,5.021818181818182,0.0,1.0,24.5076,1.96,85.0,0.0,4.0,1.0,1.2,286.94,Mainz-Drais,DE
4600,47.599,7.652,7.822736842105264,0.445,1.0,25.5021,0.63,70.0,0.0,4.0,0.0,1.2,292.61,Tüllingen,DE
1735,53.672,10.25,4.6160000000000005,0.7525,1.0,86.0076,4.56,93.0,0.0,4.0,1.0,1.2,287.63,Ahrensburg,DE
3593,49.265,6.862,5.021818181818182,0.0,1.0,52.5076,2.01,77.0,0.0,4.0,1.0,1.2,286.88,Volklingen,DE
2269,48.489,9.211,7.822736842105264,0.0,1.0,57.5076,1.31,78.0,0.0,4.0,1.0,1.2,286.82,Reutlingen,DE
1990,53.582,11.41,4.6160000000000005,1.2925,1.0,103.508,4.26,94.0,0.0,4.0,1.0,1.2,285.49,Pampow,DE
1704,48.78,9.216,7.822736842105264,0.0,1.0,57.5076,1.31,78.0,0.0,4.0,1.0,1.2,287.56,Stuttgart-Ost,DE
2529,52.5,13.334,1.3800000000000008,0.3825,1.0,92.0021,4.63,90.0,0.0,4.0,0.0,1.2,288.17,Charlottenburg,DE
3847,48.719,9.166,5.021818181818182,0.0,1.0,103.002,1.88,72.0,0.0,4.0,0.0,1.2,291.9,Sonnenberg,DE
961,53.076,8.811,4.6160000000000005,0.5925,1.0,74.5021,3.23,99.0,0.0,4.0,0.0,1.2,289.09,Bremen,DE
420,49.041,9.136,5.021818181818182,0.0,1.0,87.0021,1.93,65.0,0.0,4.0,0.0,1.2,292.23,Kirchheim am Neckar,DE
5758,48.788,9.197,5.021818181818182,0.0,1.0,103.002,1.88,72.0,0.0,4.0,0.0,1.2,291.9,Berg,DE
1236,51.245,6.79,5.021818181818182,0.0,1.0,104.002,2.38,76.0,0.0,4.0,0.0,1.2,291.81,Derendorf,DE
1071,53.463,9.972,2.062325581395349,0.0,1.0,79.5021,4.48,76.0,0.0,4.0,0.0,1.2,289.86,Harburg,DE
2810,52.439,13.505,4.6160000000000005,0.9375,1.0,112.002,3.93,98.0,0.0,4.0,0.0,1.2,288.22,Niederschoneweide,DE
4323,51.018,6.994,5.021818181818182,0.0,1.0,120.002,2.23,79.0,0.0,4.0,0.0,1.2,291.76,Manfort,DE
4111,51.065,7.039,5.021818181818182,0.0,1.0,101.008,1.81,79.0,0.0,4.0,1.0,1.2,288.49,Lützenkirchen,DE
3278,50.94,6.888,5.021818181818182,0.0,1.0,94.5076,2.06,76.0,0.0,4.0,1.0,1.2,289.09,Braunsfeld,DE
4710,53.578,9.952,4.6160000000000005,0.7525,1.0,86.0076,4.56,93.0,0.0,4.0,1.0,1.2,287.23,Eppendorf,DE
172,48.827,9.126,5.021818181818182,0.0,1.0,103.002,1.88,72.0,0.0,4.0,0.0,1.2,291.9,"Korntal-Münchingen, Stadt",DE
1613,48.825,9.346,5.021818181818182,0.0,1.0,76.5076,1.71,80.0,0.0,4.0,1.0,1.2,286.61,Korb,DE
616,51.628,7.52,5.021818181818182,0.0,1.0,93.5021,2.98,77.0,0.0,4.0,0.0,1.2,290.79,Lunen,DE
969,48.783,9.127,7.822736842105264,0.0,1.0,57.5076,1.31,78.0,0.0,4.0,1.0,1.2,287.56,Botnang,DE
4519,49.225,8.107,5.021818181818182,0.0,1.0,65.5021,2.13,72.0,0.0,4.0,0.0,1.2,292.43,Nußdorf,DE
3069,51.729,8.796,5.021818181818182,0.0,1.0,93.0021,2.68,81.0,0.0,4.0,0.0,1.2,288.73,Dörnerholz,DE
5625,49.135,9.195,5.021818181818182,0.0,1.0,87.0021,1.93,65.0,0.0,4.0,0.0,1.2,291.7,Heilbronn,DE
562,49.514,8.293,5.021818181818182,0.0,1.0,63.5021,1.98,82.0,0.0,4.0,0.0,1.2,291.93,Lambsheim,DE
5679,52.559,13.565,4.6160000000000005,0.34,1.0,100.502,4.58,94.0,0.0,4.0,0.0,1.2,289.19,Marzahn,DE
3598,52.015,8.714,5.021818181818182,0.03,1.0,76.5021,2.98,82.0,0.0,4.0,0.0,1.2,289.58,Leopoldshöhe,DE
491,48.5,9.172,5.021818181818182,0.0,1.0,103.002,1.88,72.0,0.0,4.0,0.0,1.2,290.93,Gmindersdorf,DE
4642,48.709,9.622,5.021818181818182,0.0,1.0,100.502,1.98,71.0,0.0,4.0,0.0,1.2,290.94,Wangen,DE
2025,52.022,8.531,2.9481481481481477,0.0575,1.0,68.5076,3.51,82.0,0.0,4.0,1.0,1.2,287.27,Sudbrack,DE
2538,49.76,9.664,0.8627272727272728,0.0,1.0,60.5076,2.11,86.0,0.0,4.0,1.0,1.2,285.75,Wüstenzell,DE
3714,49.988,8.674,5.021818181818182,0.0,1.0,63.5021,1.98,82.0,0.0,4.0,0.0,1.2,292.13,Langen,DE
3206,53.601,11.418,4.6160000000000005,1.2925,1.0,103.508,4.26,94.0,0.0,4.0,1.0,1.2,285.49,Feldstadt,DE
2602,47.967,7.959,7.822736842105264,0.0,1.0,349.508,1.41,80.0,0.0,4.0,1.0,1.2,286.83,Landkreis Breisgau-Hochschwarzwald,DE
698,48.414,9.939,5.021818181818182,0.0,1.0,78.0076,2.41,80.0,0.0,4.0,1.0,1.2,285.62,Herrlingen,DE
669,48.758,9.302,5.021818181818182,0.0,1.0,76.5076,1.71,80.0,0.0,4.0,1.0,1.2,286.61,Sulzgries,DE
1690,51.458,12.002,4.6160000000000005,0.04,1.0,59.0021,2.53,94.0,0.0,4.0,0.0,1.2,288.21,Zwintschöna,DE
4147,51.063,7.036,5.021818181818182,0.0,1.0,120.002,2.23,79.0,0.0,4.0,0.0,1.2,291.25,Lützenkirchen,DE
188,48.778,9.16,5.021818181818182,0.0,1.0,103.002,1.88,72.0,0.0,4.0,0.0,1.2,291.9,Stadtkreis Stuttgart,DE
3983,51.536,6.85,5.021818181818182,0.0,1.0,84.5021,3.08,74.0,0.0,4.0,0.0,1.2,291.97,Bottrop,DE
1099,48.397,10.01,5.021818181818182,0.0,1.0,92.5021,2.13,77.0,0.0,4.0,0.0,1.2,290.41,Neu-Ulm,DE
2177,50.993,6.798,5.021818181818182,0.0,1.0,104.002,2.38,76.0,0.0,4.0,0.0,1.2,292.17,Pulheim,DE
107,48.531,9.2,5.021818181818182,0.0,1.0,103.002,1.88,72.0,0.0,4.0,0.0,1.2,291.0,Sickenhausen,DE
3548,49.401,11.092,5.021818181818182,0.0,1.0,107.002,1.98,71.0,0.0,4.0,0.0,1.2,289.74,Worzeldorf,DE
718,50.299,8.265,5.021818181818182,0.0,1.0,83.0021,1.88,82.0,0.0,4.0,0.0,1.2,290.15,Bad Camberg,DE
339,49.309,8.641,5.021818181818182,0.0,1.0,65.5021,2.13,72.0,0.0,4.0,0.0,1.2,292.45,Walldorf,DE
688,51.352,12.429,4.6160000000000005,0.06,1.0,87.0021,2.13,92.0,0.0,4.0,0.0,1.2,288.28,Paunsdorf,DE
4483,49.118,10.763,5.021818181818182,0.0,1.0,89.5076,2.01,78.0,0.0,4.0,1.0,1.2,285.8,Gunzenhausen,DE
1306,48.697,9.114,5.021818181818182,0.0,1.0,103.002,1.88,72.0,0.0,4.0,0.0,1.2,291.9,Europe,DE
3596,50.708,7.084,5.021818181818182,0.0,1.0,120.002,2.23,79.0,0.0,4.0,0.0,1.2,290.41,Ückesdorf,DE
3686,50.965,6.937,5.021818181818182,0.0,1.0,101.008,1.81,79.0,0.0,4.0,1.0,1.2,288.98,Nippes,DE
1874,51.596,6.933,5.021818181818182,0.0,1.0,75.0076,2.21,71.0,0.0,4.0,1.0,1.2,289.22,Gladbeck,DE
1270,48.138,11.55,5.021818181818182,0.005,1.0,82.0076,2.11,79.0,0.0,4.0,1.0,1.2,285.68,Maxvorstadt,DE
5692,51.025,13.827,4.6160000000000005,0.035,1.0,151.002,1.93,93.0,0.0,4.0,0.0,1.2,288.26,Niederpoyritz,DE
1687,48.809,9.37,5.021818181818182,0.0,1.0,100.502,1.98,71.0,0.0,4.0,0.0,1.2,291.8,Weinstadt-Endersbach,DE
2643,52.39,10.536,4.6160000000000005,0.04,1.0,82.5021,3.13,95.0,0.0,4.0,0.0,1.2,289.24,Meine,DE
2942,51.447,7.186,2.9481481481481477,0.0,1.0,91.0021,3.23,72.0,0.0,4.0,0.0,1.2,291.51,Stalleicken,DE
4511,49.48,10.995,5.021818181818182,0.0,1.0,107.002,1.98,71.0,0.0,4.0,0.0,1.2,290.02,Furth,DE
5393,52.397,10.064,4.6160000000000005,0.07,1.0,79.5021,2.98,94.0,0.0,4.0,0.0,1.2,289.07,Arpke,DE
3308,48.897,9.182,5.021818181818182,0.0,1.0,87.0021,1.93,65.0,0.0,4.0,0.0,1.2,292.23,Ludwigsburg,DE
907,51.268,7.141,5.021818181818182,0.0,1.0,120.002,2.23,79.0,0.0,4.0,0.0,1.2,291.25,Elberfeld,DE
519,48.533,9.059,5.021818181818182,0.0,1.0,103.002,1.88,72.0,0.0,4.0,0.0,1.2,291.9,Tuebingen,DE
5553,49.529,8.665,5.021818181818182,0.0,1.0,63.5021,1.98,82.0,0.0,4.0,0.0,1.2,292.13,Weinheim,DE
2226,48.287,8.726,5.021818181818182,0.0,1.0,115.002,1.68,74.0,0.0,4.0,0.0,1.2,291.81,Rosenfeld,DE
841,48.566,13.45,5.021818181818182,0.0,1.0,113.002,2.13,73.0,0.0,4.0,0.0,1.2,290.53,Passau,DE
715,48.725,9.095,5.021818181818182,0.0,1.0,103.002,1.88,72.0,0.0,4.0,0.0,1.2,291.9,Büsnau,DE
3411,53.586,10.014,2.062325581395349,0.0,1.0,79.5021,4.48,76.0,0.0,4.0,0.0,1.2,290.07,Freie und Hansestadt Hamburg,DE
2761,48.432,9.065,5.021818181818182,0.0,1.0,103.002,1.88,72.0,0.0,4.0,0.0,1.2,291.02,Nehren,DE
829,52.559,13.188,4.6160000000000005,0.345,1.0,100.008,4.36,94.0,0.0,4.0,1.0,1.2,287.2,Berlin Spandau,DE
3978,50.958,11.062,4.6160000000000005,0.9725,1.0,77.0076,1.31,98.0,0.0,4.0,1.0,1.2,285.73,Windischholzhausen,DE
3316,50.769,6.092,5.021818181818182,0.0,1.0,67.0076,2.11,76.0,0.0,4.0,1.0,1.2,288.69,"Aachen, Stadt",DE
2721,49.485,11.112,5.021818181818182,0.0,1.0,88.5076,2.01,84.0,0.0,4.0,1.0,1.2,284.79,Lohermoos,DE
4140,51.059,6.921,5.021818181818182,0.0,1.0,101.008,1.81,79.0,0.0,4.0,1.0,1.2,288.85,Voigtslach,DE
5289,49.545,9.732,0.8627272727272728,0.0,1.0,60.5076,2.11,86.0,0.0,4.0,1.0,1.2,285.52,Main-Tauber-Kreis,DE
5491,53.541,10.224,4.6160000000000005,0.7525,1.0,86.0076,4.56,93.0,0.0,4.0,1.0,1.2,287.11,Glinde,DE
4823,48.739,8.964,5.021818181818182,0.0,1.0,103.002,1.88,72.0,0.0,4.0,0.0,1.2,292.35,Magstadt,DE
2537,50.931,7.001,5.021818181818182,0.0,1.0,120.002,2.23,79.0,0.0,4.0,0.0,1.2,291.76,Kalk,DE
5495,48.718,9.004,5.021818181818182,0.0,1.0,103.002,1.88,72.0,0.0,4.0,0.0,1.2,292.36,Sindelfingen,DE
5505,51.048,13.752,4.6160000000000005,0.035,1.0,151.002,1.93,93.0,0.0,4.0,0.0,1.2,288.26,"Dresden, Stadt",DE
3605,48.965,9.118,5.021818181818182,0.0,1.0,87.0021,1.93,65.0,0.0,4.0,0.0,1.2,292.23,Bietigheim-Bissingen,DE
790,48.844,9.156,5.021818181818182,0.0,1.0,103.002,1.88,72.0,0.0,4.0,0.0,1.2,291.9,Zuffenhausen,DE
5737,51.199,6.441,5.021818181818182,0.0,1.0,104.002,2.38,76.0,0.0,4.0,0.0,1.2,292.15,Monchengladbach,DE
1531,53.139,8.211,4.6160000000000005,0.225,1.0,72.5021,3.28,88.0,0.0,4.0,0.0,1.2,289.64,Oldenburg,DE
4637,48.806,9.14,5.021818181818182,0.0,1.0,103.002,1.88,72.0,0.0,4.0,0.0,1.2,291.9,Stuttgart Feuerbach,DE
1112,51.371,9.511,0.8627272727272728,0.02,1.0,75.5021,1.88,86.0,0.0,4.0,0.0,1.2,288.9,Ihringshausen,DE
3980,52.453,13.12,4.6160000000000005,0.3825,1.0,99.0021,4.08,98.0,0.0,4.0,0.0,1.2,287.69,Wochenend West,DE
5232,52.557,13.495,1.3800000000000008,0.3825,1.0,92.0021,4.63,90.0,0.0,4.0,0.0,1.2,288.17,Malchow,DE
591,53.607,10.047,2.062325581395349,0.0,1.0,79.5021,4.48,76.0,0.0,4.0,0.0,1.2,290.07,Steilshoop,DE
2727,48.694,8.935,7.822736842105264,0.0,1.0,57.5076,1.31,78.0,0.0,4.0,1.0,1.2,287.89,Landkreis Böblingen,DE
5734,47.592,7.687,7.822736842105264,0.0,1.0,21.0076,1.06,79.0,0.0,4.0,1.0,1.2,288.32,Inzlingen,DE
3375,51.957,7.599,2.9481481481481477,0.0075,1.0,68.5076,3.66,78.0,0.0,4.0,1.0,1.2,288.66,Muenster,DE
5728,48.129,11.597,5.021818181818182,0.0,1.0,73.0021,2.03,68.0,0.0,4.0,0.0,1.2,290.26,Altstadt,DE
5791,53.481,10.006,4.6160000000000005,0.7525,1.0,86.0076,4.56,93.0,0.0,4.0,1.0,1.2,287.12,Neuland,DE
3317,49.859,8.55,5.021818181818182,0.0,1.0,24.5076,1.96,85.0,0.0,4.0,1.0,1.2,287.57,Griesheim,DE
3800,49.835,8.258,5.021818181818182,0.0,1.0,63.5021,1.98,82.0,0.0,4.0,0.0,1.2,291.92,Friesenheim,DE
2797,48.79,9.255,5.021818181818182,0.0,1.0,103.002,1.88,72.0,0.0,4.0,0.0,1.2,291.9,Luginsland,DE
724,48.766,9.178,5.021818181818182,0.0,1.0,103.002,1.88,72.0,0.0,4.0,0.0,1.2,291.9,Stuttgart,DE
706,48.691,9.017,5.021818181818182,0.0,1.0,103.002,1.88,72.0,0.0,4.0,0.0,1.2,292.36,Boblingen,DE
3410,51.141,14.924,4.6160000000000005,0.0099999999999998,1.0,169.502,2.23,90.0,0.0,4.0,0.0,1.2,287.26,Holtendorf,DE
1219,51.495,6.67,5.021818181818182,0.0,1.0,84.5021,3.08,74.0,0.0,4.0,0.0,1.2,291.93,Beeckerwerth,DE
227,48.787,9.192,5.021818181818182,0.0,1.0,103.002,1.88,72.0,0.0,4.0,0.0,1.2,291.9,Stadtkreis Stuttgart,DE
3545,51.495,11.939,4.6160000000000005,0.04,1.0,59.0021,2.53,94.0,0.0,4.0,0.0,1.2,288.2,Gimritz,DE
2616,48.726,9.104,5.021818181818182,0.0,1.0,103.002,1.88,72.0,0.0,4.0,0.0,1.2,291.9,Büsnau,DE
2741,53.15,11.046,2.062325581395349,0.0,1.0,78.0021,4.83,71.0,0.0,4.0,0.0,1.2,288.5,Neu Dötzingen,DE
610,48.8,9.216,5.021818181818182,0.0,1.0,103.002,1.88,72.0,0.0,4.0,0.0,1.2,291.9,Berg,DE
548,48.724,9.094,5.021818181818182,0.0,1.0,103.002,1.88,72.0,0.0,4.0,0.0,1.2,291.9,Büsnau,DE
2544,48.839,9.142,5.021818181818182,0.0,1.0,103.002,1.88,72.0,0.0,4.0,0.0,1.2,291.9,"Korntal-Münchingen, Stadt",DE
4982,48.362,9.988,5.021818181818182,0.0,1.0,92.5021,2.13,77.0,0.0,4.0,0.0,1.2,290.41,Neu-Ulm,DE
5355,48.799,9.224,5.021818181818182,0.0,1.0,103.002,1.88,72.0,0.0,4.0,0.0,1.2,291.9,Berg,DE
3153,48.63,9.047,5.021818181818182,0.0,1.0,103.002,1.88,72.0,0.0,4.0,0.0,1.2,291.9,Breitenstein,DE
664,48.77,9.245,7.822736842105264,0.0,1.0,57.5076,1.31,78.0,0.0,4.0,1.0,1.2,287.56,Hedelfingen,DE
171,48.827,9.126,5.021818181818182,0.0,1.0,103.002,1.88,72.0,0.0,4.0,0.0,1.2,291.9,"Korntal-Münchingen, Stadt",DE
747,49.389,8.798,5.021818181818182,0.0,1.0,50.5076,1.66,74.0,0.0,4.0,1.0,1.2,286.77,Neckargemund,DE
2659,53.303,10.407,4.6160000000000005,0.7525,1.0,86.0076,4.56,93.0,0.0,4.0,1.0,1.2,287.28,Bardowick,DE
3748,50.057,8.689,5.021818181818182,0.0,1.0,24.5076,1.96,85.0,0.0,4.0,1.0,1.2,287.57,Neu Isenburg,DE
5407,53.582,9.946,4.6160000000000005,0.7525,1.0,86.0076,4.56,93.0,0.0,4.0,1.0,1.2,287.23,Eppendorf,DE
1601,48.593,9.635,5.021818181818182,0.0,1.0,100.502,1.98,71.0,0.0,4.0,0.0,1.2,290.97,Gruibingen,DE
2005,49.894,10.923,5.021818181818182,0.0,1.0,61.5076,1.66,85.0,0.0,4.0,1.0,1.2,286.51,Bamberg,DE
881,51.258,7.155,5.021818181818182,0.0,1.0,120.002,2.23,79.0,0.0,4.0,0.0,1.2,291.25,Westen,DE
442,49.255,7.36,5.021818181818182,0.0,1.0,89.0021,2.08,70.0,0.0,4.0,0.0,1.2,291.3,Zweibrucken,DE
1463,48.41,9.934,5.021818181818182,0.0,1.0,92.5021,2.13,77.0,0.0,4.0,0.0,1.2,290.64,Herrlingen,DE
4726,51.734,8.951,5.021818181818182,0.0,1.0,93.0021,2.68,81.0,0.0,4.0,0.0,1.2,288.73,Buke,DE
5718,47.733,9.243,4.6160000000000005,0.0,1.0,99.0076,1.06,90.0,0.0,4.0,1.0,1.2,285.63,Uhldingen-Mühlhofen,DE
3068,51.729,8.796,5.021818181818182,0.005,1.0,79.5076,1.96,83.0,0.0,4.0,1.0,1.2,286.52,Dörnerholz,DE
5450,49.599,11.07,5.021818181818182,0.0,1.0,61.5076,1.66,85.0,0.0,4.0,1.0,1.2,286.2,Uttenreuth,DE
1661,53.79,9.674,2.062325581395349,0.0075000000000003,1.0,74.0076,5.46,85.0,0.0,4.0,1.0,1.2,287.18,Sparrieshoop,DE
2946,51.544,7.15,5.021818181818182,0.0,1.0,75.0076,2.21,71.0,0.0,4.0,1.0,1.2,289.23,Wanne-Eickel,DE
3890,50.866,6.692,5.021818181818182,0.0,1.0,94.5076,2.06,76.0,0.0,4.0,1.0,1.2,289.11,Kerpen,DE
5538,51.777,8.82,5.021818181818182,0.005,1.0,79.5076,1.96,83.0,0.0,4.0,1.0,1.2,286.52,Bad Lippspringe,DE
1797,48.138,11.428,5.021818181818182,0.005,1.0,82.0076,2.11,79.0,0.0,4.0,1.0,1.2,285.68,Grafelfing,DE
3286,52.001,10.266,4.6160000000000005,0.03,1.0,86.0076,2.91,92.0,0.0,4.0,1.0,1.2,286.32,Lutter am Barenberge,DE
5396,48.602,11.861,5.021818181818182,0.0,1.0,78.0021,2.13,68.0,0.0,4.0,0.0,1.2,290.91,Volkenschwand,DE
4361,53.575,9.856,2.062325581395349,0.0025,1.0,77.0021,4.43,77.0,0.0,4.0,0.0,1.2,290.35,Hochkamp,DE
5792,53.481,10.006,2.062325581395349,0.0,1.0,79.5021,4.48,76.0,0.0,4.0,0.0,1.2,289.86,Neuland,DE
4485,51.2,6.738,5.021818181818182,0.0,1.0,104.002,2.38,76.0,0.0,4.0,0.0,1.2,292.03,Dusseldorf,DE
4972,51.215,6.767,5.021818181818182,0.0,1.0,104.002,2.38,76.0,0.0,4.0,0.0,1.2,291.81,Dusseldorf,DE
2778,53.252,10.409,2.062325581395349,0.0,1.0,79.5021,4.48,76.0,0.0,4.0,0.0,1.2,289.66,Luneburg,DE
1533,48.823,9.304,5.021818181818182,0.0,1.0,76.5076,1.71,80.0,0.0,4.0,1.0,1.2,286.61,Waiblingen,DE
503,48.649,9.47,5.021818181818182,0.0,1.0,76.5076,1.71,80.0,0.0,4.0,1.0,1.2,285.88,Kirchheim unter Teck,DE
495,48.63,9.162,7.822736842105264,0.0,1.0,57.5076,1.31,78.0,0.0,4.0,1.0,1.2,287.56,Waldenbuch,DE
2977,51.5,7.44,5.021818181818182,0.0,1.0,75.0076,2.21,71.0,0.0,4.0,1.0,1.2,289.27,Dortmund,DE
3775,48.683,9.016,7.822736842105264,0.0,1.0,57.5076,1.31,78.0,0.0,4.0,1.0,1.2,287.89,Boblingen,DE
4051,50.925,11.604,4.6160000000000005,0.99,1.0,66.0021,1.88,98.0,0.0,4.0,0.0,1.2,286.51,Jena,DE
5219,50.768,7.307,5.021818181818182,0.0,1.0,120.002,2.23,79.0,0.0,4.0,0.0,1.2,289.69,"Hennef (Sieg), Stadt",DE
876,51.447,7.047,2.9481481481481477,0.0,1.0,91.0021,3.23,72.0,0.0,4.0,0.0,1.2,291.47,Essen,DE
5644,50.957,7.011,5.021818181818182,0.0,1.0,120.002,2.23,79.0,0.0,4.0,0.0,1.2,291.76,Koeln-Muelheim,DE
3554,53.557,10.007,2.062325581395349,0.0,1.0,79.5021,4.48,76.0,0.0,4.0,0.0,1.2,290.06,St. Georg,DE
870,51.28,7.235,5.021818181818182,0.0,1.0,120.002,2.23,79.0,0.0,4.0,0.0,1.2,291.25,Öhde,DE
3651,48.693,9.168,5.021818181818182,0.0,1.0,103.002,1.88,72.0,0.0,4.0,0.0,1.2,291.9,Echterdingen,DE
2047,51.565,9.929,4.6160000000000005,0.1,1.0,65.0021,1.88,89.0,0.0,4.0,0.0,1.2,289.19,Bovenden,DE
479,48.606,9.096,7.822736842105264,0.0,1.0,57.5076,1.31,78.0,0.0,4.0,1.0,1.2,287.56,Dettenhausen,DE
1702,48.353,10.063,5.021818181818182,0.0,1.0,78.0076,2.41,80.0,0.0,4.0,1.0,1.2,285.22,Aufheim,DE
4784,51.293,9.451,4.6160000000000005,0.005,1.0,72.5076,1.86,90.0,0.0,4.0,1.0,1.2,286.4,Fuldabrück,DE
1286,48.385,9.947,5.021818181818182,0.0,1.0,78.0076,2.41,80.0,0.0,4.0,1.0,1.2,285.62,Unterer Riedhof,DE
4762,50.739,7.123,5.021818181818182,0.0,1.0,120.002,2.23,79.0,0.0,4.0,0.0,1.2,290.38,Limperich,DE
4970,50.984,6.995,5.021818181818182,0.0,1.0,120.002,2.23,79.0,0.0,4.0,0.0,1.2,291.76,Koeln-Muelheim,DE
496,48.519,9.052,5.021818181818182,0.0,1.0,103.002,1.88,72.0,0.0,4.0,0.0,1.2,291.9,Tuebingen,DE
2891,51.19,7.261,5.021818181818182,0.0,1.0,120.002,2.23,79.0,0.0,4.0,0.0,1.2,291.25,Untergarschagen,DE
4500,54.654,9.41,2.062325581395349,0.0,1.0,85.0021,7.88,78.0,0.0,4.0,0.0,1.2,289.18,Keelbek,DE
1754,48.312,9.245,5.021818181818182,0.0,1.0,103.002,1.88,72.0,0.0,4.0,0.0,1.2,291.08,Trochtelfingen,DE
3285,52.001,10.266,4.6160000000000005,0.07,1.0,79.5021,2.98,94.0,0.0,4.0,0.0,1.2,288.41,Lutter am Barenberge,DE
4665,53.558,9.904,2.062325581395349,0.0,1.0,79.5021,4.48,76.0,0.0,4.0,0.0,1.2,290.06,Bahrenfeld,DE
1296,48.491,9.185,5.021818181818182,0.0,1.0,103.002,1.88,72.0,0.0,4.0,0.0,1.2,291.02,Reutlingen,DE
3599,48.222,11.475,5.021818181818182,0.005,1.0,82.0076,2.11,79.0,0.0,4.0,1.0,1.2,285.68,Karlsfeld,DE
3614,50.936,6.855,5.021818181818182,0.0,1.0,94.5076,2.06,76.0,0.0,4.0,1.0,1.2,289.09,Lind,DE
937,48.194,11.548,5.021818181818182,0.005,1.0,82.0076,2.11,79.0,0.0,4.0,1.0,1.2,285.68,Kolonie Lerchenau,DE
4345,49.866,7.986,5.021818181818182,0.0,1.0,37.5076,1.61,81.0,0.0,4.0,1.0,1.2,286.88,Sprendlingen,DE
1523,53.658,10.118,4.6160000000000005,0.7525,1.0,86.0076,4.56,93.0,0.0,4.0,1.0,1.2,287.23,Sasel,DE
5447,52.363,9.962,4.6160000000000005,0.03,1.0,86.0076,2.91,92.0,0.0,4.0,1.0,1.2,286.64,"Lehrte, Stadt",DE
705,48.691,9.017,5.021818181818182,0.0,1.0,103.002,1.88,72.0,0.0,4.0,0.0,1.2,292.36,Boblingen,DE
3158,51.581,6.96,2.9481481481481477,0.0,1.0,91.0021,3.23,72.0,0.0,4.0,0.0,1.2,291.51,Gladbeck,DE
2119,52.54,13.42,1.3800000000000008,0.3825,1.0,92.0021,4.63,90.0,0.0,4.0,0.0,1.2,288.17,Berlin,DE
4579,47.61,7.672,7.822736842105264,0.445,1.0,25.5021,0.63,70.0,0.0,4.0,0.0,1.2,292.61,Lorrach,DE
5169,50.991,6.708,5.021818181818182,0.0,1.0,104.002,2.38,76.0,0.0,4.0,0.0,1.2,292.3,Niederaußem,DE
3465,48.884,9.161,5.021818181818182,0.0,1.0,103.002,1.88,72.0,0.0,4.0,0.0,1.2,291.9,Moglingen,DE
3361,48.126,11.552,5.021818181818182,0.0,1.0,73.0021,2.03,68.0,0.0,4.0,0.0,1.2,290.46,Altstadt,DE
2850,49.976,8.343,5.021818181818182,0.0,1.0,63.5021,1.98,82.0,0.0,4.0,0.0,1.2,292.13,Ginsheim-Gustavsburg,DE
623,51.031,13.732,4.6160000000000005,0.035,1.0,151.002,1.93,93.0,0.0,4.0,0.0,1.2,288.26,Mockritz,DE
3889,50.866,6.692,5.021818181818182,0.0,1.0,104.002,2.38,76.0,0.0,4.0,0.0,1.2,291.82,Kerpen,DE
1192,51.193,7.076,5.021818181818182,0.0,1.0,120.002,2.23,79.0,0.0,4.0,0.0,1.2,291.09,Stöcken,DE
3855,48.705,13.308,5.021818181818182,0.0,1.0,113.002,2.13,73.0,0.0,4.0,0.0,1.2,289.3,Stolzing,DE
2788,50.648,7.183,5.021818181818182,0.0,1.0,100.502,2.03,77.0,0.0,4.0,0.0,1.2,289.27,Niederbachem,DE
3020,52.384,13.105,4.6160000000000005,0.1025,1.0,110.508,3.01,96.0,0.0,4.0,1.0,1.2,287.24,Babelsberg,DE
